*26
$APHDM,345.5,M*34
$APRSA,8.6,A*30
$APHDT,345.5,T*34
$APRSA,8.6,A*30
$APHDG,345.5,,,0.0,W*26
$APHDM,345.5,M*34
$APRSA,8.4,A*32
$APHDT,345.5,T*34
$APRSA,8.4,A*32
$APHDG,345.4,,,0.0,W*27
$APHDM,345.3,M*32
$APRSA,8.4,A*32
$APHDT,345.0,$APRSA,8.5,A*33
$APHDT,357.2,T*30
$GPRMC,065830,A,3746.830,N,12223.251,W,0.0,000.0,291219,013.0,E,A*08
$GPVTG,000.0,T,347.0,M,0.0,N,,K,A*0D
$GPVTG,000.0,T,347.0,M,0.0,N,,K,A*0D
$GPGLL,3746.830,N,12223.251,W,065830,A,A*56
$APHDG,344.3,,,13.0,E*01
$APHDM,344.3,M*33
$APRSA,8.6,A*30
$APHDT,357.3,T*31
$GPRMC,065830,A,3746.830,N,12223.251,W,0.0,000.0,291219,013.0,E,A*08
$GPVTG,000.0,T,347.0,M,0.0,N,,K,A*0D
$GPVTG,000.0,T,347.0,M,0.0,N,,K,A*0D
$GPGLL,3746.830,N,12223.251,W,065840,A,A*51
$APHDG,344.4,,,13.0,E*06
$APHDM,344.4,M*34
$APRSA,8.6,A*30
$APHDT,357.4,T*36
$GPRMC,065840,A,3746.830,N,12223.251,W,0.0,000.0,291219,013.0,E,A*0F
$GPVTG,000.0,T,347.0,M,0.0,N,,K,A*0D
$GPVTG,000.0,T,347.0,M,0.0,N,,K,A*0D
$GPGLL,3746.830,N,12223.251,W,065840,A,A*51
$APHDG,344.6,,,13.0,E*04
$APHDM,344.6,M*36
$APRSA,8.5,A*33
$APHDT,357.7,T*35
$GPRMC,065840,A,3746.830,N,12223.251,W,0.0,000.0,291219,013.0,E,A*0F
$GPVTG,000.0,T,347.0,M,0.0,N,,K,A*0D
$GPVTG,000.0,T,347.0,M,0.0,N,,K,A*0D
$GPGLL,3746.830,N,12223.251,W,065840,A,A*51
$APHDG,344.7,,,13.0,E*05
$APHDM,344.8,M*38
$APRSA,8.3,A*35
$APHDT,357.8,T*3A
$GPRMC,065840,A,3746.830,N,12223.251,W,0.0,000.0,291219,013.0,E,A*0F
$GPVTG,000.0,T,347.0,M,0.0,N,,K,A*0D
$GPVTG,000.0,T,347.0,M,0.0,N,,K,A*0D
$GPGLL,3746.830,N,12223.251,W,065840,A,A*51
$APHDG,344.9,,,13.0,E*0B
$APHDM,344.8,M*38
$APRSA,8.3,A*35
$APHDT,357.8,T*3A
$GPRMC,065840,A,3746.830,N,12223.251,W,0.0,000.0,291219,013.0,E,A*0F
$GPVTG,000.0,T,347.0,M,0.0,N,,K,A*0D
$GPVTG,000.0,T,347.0,M,0.0,N,,K,A*0D
$GPGLL,3746.830,N,12223.251,W,065840,A,A*51
$APHDG,344.7,,,13.0,E*05
$APHDM,344.7,M*37
$APRSA,8.5,A*33
$APHDT,357.7,T*35
$GPRMC,065840,A,3746.830,N,12223.251,W,0.0,000.0,291219,013.0,E,A*0F
$GPVTG,000.0,T,347.0,M,0.0,N,,K,A*0D
$GPVTG,000.0,T,347.0,M,0.0,N,,K,A*0D
$GPGLL,3746.830,N,12223.251,W,065840,A,A*51
$APHDG,344.6,,,13.0,E*04
$APHDM,344.6,M*36
$APRSA,8.5,A*33
$APHDT,357.5,T*37
$GPRMC,065840,A,3746.830,N,12223.251,W,0.0,000.0,291219,013.0,E,A*0F
$GPVTG,000.0,T,347.0,M,0.0,N,,K,A*0D
$GPVTG,000.0,T,347.0,M,0.0,N,,K,A*0D
$GPGLL,3746.830,N,12223.251,W,065840,A,A*51
$APHDG,344.7,,,13.0,E*05
$APHDM,344.7,M*37
$APRSA,8.5,A*33
$APHDT,357.7,T*35
$GPRMC,065840,A,3746.830,N,12223.251,W,0.0,000.0,291219,013.0,E,A*0F
$GPVTG,000.0,T,347.0,M,0.0,N,,K,A*0D
$GPVTG,000.0,T,347.0,M,0.0,N,,K,A*0D
$GPGLL,3746.830,N,12223.251,W,065840,A,A*51
$APHDG,344.9,,,13.0,E*0B
$APHDM,345.1,M*30
$APRSA,8.5,A*33
$APHDT,358.0,T*3D
$GPRMC,065840,A,3746.830,N,12223.251,W,0.0,000.0,291219,013.0,E,A*0F
$GPVTG,000.0,T,347.0,M,0.0,N,,K,A*0D
$GPVTG,000.0,T,347.0,M,0.0,N,,K,A*0D
$GPGLL,3746.830,N,12223.251,W,065840,A,A*51
$APHDG,345.5,,,13.0,E*06
$APHDM,345.6,M*37
$APRSA,8.5,A*33
$APHDT,358.5,T*38
$GPRMC,065840,A,3746.830,N,12223.251,W,0.0,000.0,291219,013.0,E,A*0F
$GPVTG,000.0,T,347.0,M,0.0,N,,K,A*0D
$GPVTG,000.0,T,347.0,M,0.0,N,,K,A*0D
$GPGLL,3746.830,N,12223.251,W,065840,A,A*51
$APHDG,345.4,,,13.0,E*07
$APHDM,345.3,M*32
$APRSA,8.5,A*33
$APHDT,358.4,T*39
$GPRMC,065850,A,3746.830,N,12223.251,W,0.0,000.0,291219,013.0,E,A*0E
$GPVTG,000.0,T,347.0,M,0.0,N,,K,A*0D
$GPVTG,000.0,T,347.0,M,0.0,N,,K,A*0D
$GPGLL,3746.830,N,12223.251,W,065850,A,A*50
$APHDG,345.5,,,13.0,E*06
$APHDM,345.5,M*34
$APRSA,8.5,A*33
$APHDT,358.3,T*3E
$GPRMC,065850,A,3746.830,N,12223.251,W,0.0,000.0,291219,013.0,E,A*0E
$GPVTG,000.0,T,347.0,M,0.0,N,,K,A*0D
$GPVTG,000.0,T,347.0,M,0.0,N,,K,A*0D
$GPGLL,3746.830,N,12223.251,W,065850,A,A*50
$APHDG,345.5,,,13.0,E*06
$APHDM,345.5,M*34
$APRSA,8.3,A*35
$APHDT,358.5,T*38
$GPRMC,065850,A,3746.830,N,12223.250,W,0.0,000.0,291219,013.0,E,A*0F
$GPVTG,000.0,T,347.0,M,0.0,N,,K,A*0D
$GPVTG,000.0,T,347.0,M,0.0,N,,K,A*0D
$GPGLL,3746.830,N,12223.250,W,065850,A,A*51
$APHDG,345.6,,,13.0,E*05
$APHDM,345.7,M*36
$APRSA,8.6,A*30
$APHDT,358.7,T*3A
$GPRMC,065850,A,3746.830,N,12223.250,W,0.0,000.0,291219,013.0,E,A*0F
$GPVTG,000.0,T,347.0,M,0.0,N,,K,A*0D
$GPVTG,000.0,T,347.0,M,0.0,N,,K,A*0D
$GPGLL,3746.830,N,12223.250,W,065850,A,A*51
$APHDG,345.7,,,13.0,E*04
$APHDM,345.6,M*37
$APRSA,8.5,A*33
$APHDT,358.5,T*38
$GPRMC,065850,A,3746.830,N,12223.250,W,0.0,000.0,291219,013.0,E,A*0F
$GPVTG,000.0,T,347.0,M,0.0,N,,K,A*0D
$GPVTG,000.0,T,347.0,M,0.0,N,,K,A*0D
$GPGLL,3746.830,N,12223.250,W,065850,A,A*51
$APHDG,345.3,,,13.0,E*00
$APHDM,345.3,M*32
$APRSA,8.3,A*35
$APHDT,358.3,T*3E
$GPRMC,065850,A,3746.830,N,12223.250,W,0.0,000.0,291219,013.0,E,A*0F
$GPVTG,000.0,T,347.0,M,0.0,N,,K,A*0D
$GPVTG,000.0,T,347.0,M,0.0,N,,K,A*0D
$GPGLL,3746.830,N,12223.250,W,065850,A,A*51
$APHDG,345.3,,,13.0,E*00
$APHDM,345.3,M*32
$APRSA,8.5,A*33
$APHDT,358.3,T*3E
$GPRMC,065850,A,3746.830,N,12223.250,W,0.0,000.0,291219,013.0,E,A*0F
$GPVTG,000.0,T,347.0,M,0.0,N,,K,A*0D
$GPVTG,000.0,T,347.0,M,0.0,N,,K,A*0D
$GPGLL,3746.830,N,12223.250,W,065850,A,A*51
$APHDG,345.5,,,13.0,E*06
$APHDM,345.5,M*34
$APRSA,8.6,A*30
$APHDT,358.7,T*3A
$GPRMC,065850,A,3746.830,N,12223.250,W,0.0,000.0,291219,013.0,E,A*0F
$GPVTG,000.0,T,347.0,M,0.0,N,,K,A*0D
$GPVTG,000.0,T,347.0,M,0.0,N,,K,A*0D
$GPGLL,3746.830,N,12223.250,W,065850,A,A*51
$APHDG,346.1,,,13.0,E*01
$APHDM,346.0,M*32
$APRSA,8.5,A*33
$APHDT,359.3,T*3F
$GPRMC,065850,A,3746.830,N,12223.250,W,0.0,000.0,291219,013.0,E,A*0F
$GPVTG,000.0,T,347.0,M,0.0,N,,K,A*0D
$GPVTG,000.0,T,347.0,M,0.0,N,,K,A*0D
$GPGLL,3746.830,N,12223.250,W,065850,A,A*51
$APHDG,346.4,,,13.0,E*04
$APHDM,346.5,M*37
$APRSA,8.5,A*33
$APHDT,359.4,T*38
$GPRMC,065850,A,3746.830,N,12223.250,W,0.0,000.0,291219,013.0,E,A*0F
$GPVTG,000.0,T,347.0,M,0.0,N,,K,A*0D
$GPVTG,000.0,T,347.0,M,0.0,N,,K,A*0D
$GPGLL,3746.830,N,12223.250,W,065850,A,A*51
$APHDG,346.5,,,13.0,E*05
$APHDM,346.6,M*34
$APRSA,8.4,A*32
$APHDT,359.5,T*39
$GPRMC,065900,A,3746.830,N,12223.250,W,0.0,000.0,291219,013.0,E,A*0B
$GPVTG,000.0,T,347.0,M,0.0,N,,K,A*0D
$GPVTG,000.0,T,347.0,M,0.0,N,,K,A*0D
$GPGLL,3746.830,N,12223.250,W,065900,A,A*55
$APHDG,346.1,,,13.0,E*01
$APHDM,345.9,M*38
$APRSA,8.5,A*33
$APHDT,358.5,T*38
$GPRMC,065900,A,3746.830,N,12223.250,W,0.0,000.0,291219,013.0,E,A*0B
$GPVTG,000.0,T,347.0,M,0.0,N,,K,A*0D
$GPVTG,000.0,T,347.0,M,0.0,N,,K,A*0D
$GPGLL,3746.830,N,12223.250,W,065900,A,A*55
$APHDG,345.1,,,13.0,E*02
$APHDM,345.1,M*30
$APRSA,8.5,A*33
$APHDT,358.0,T*3D
$GPRMC,065900,A,3746.830,N,12223.250,W,0.0,000.0,291219,013.0,E,A*0B
$GPVTG,000.0,T,347.0,M,0.0,N,,K,A*0D
$GPVTG,000.0,T,347.0,M,0.0,N,,K,A*0D
$GPGLL,3746.830,N,12223.250,W,065900,A,A*55
$APHDG,344.9,,,13.0,E*0B
$APHDM,344.9,M*39
$APRSA,8.5,A*33
$APHDT,357.9,T*3B
$GPRMC,065900,A,3746.830,N,12223.250,W,0.0,000.0,291219,013.0,E,A*0B
$GPVTG,000.0,T,347.0,M,0.0,N,,K,A*0D
$GPVTG,000.0,T,347.0,M,0.0,N,,K,A*0D
$GPGLL,3746.830,N,12223.249,W,065900,A,A*5D
$APHDG,344.8,,,13.0,E*0A
$APHDM,344.8,M*38
$APRSA,8.5,A*33
$APHDT,357.7,T*35
$GPRMC,065900,A,3746.830,N,12223.249,W,0.0,000.0,291219,013.0,E,A*03
$GPVTG,000.0,T,347.0,M,0.0,N,,K,A*0D
$GPVTG,000.0,T,347.0,M,0.0,N,,K,A*0D
$GPGLL,3746.830,N,12223.249,W,065900,A,A*5D
$APHDG,344.7,,,13.0,E*05
$APHDM,344.8,M*38
$APRSA,8.5,A*33
$APHDT,357.8,T*3A
$GPRMC,065900,A,3746.830,N,12223.249,W,0.0,000.0,291219,013.0,E,A*03
$GPVTG,000.0,T,347.0,M,0.0,N,,K,A*0D
$GPVTG,000.0,T,347.0,M,0.0,N,,K,A*0D
$GPGLL,3746.830,N,12223.249,W,065900,A,A*5D
$APHDG,345.1,,,13.0,E*02
$APHDM,345.1,M*30
$APRSA,8.5,A*33
$APHDT,358.2,T*3F
$GPRMC,065900,A,3746.830,N,12223.249,W,0.0,000.0,291219,013.0,E,A*03
$GPVTG,000.0,T,347.0,M,0.0,N,,K,A*0D
$GPVTG,000.0,T,347.0,M,0.0,N,,K,A*0D
$GPGLL,3746.830,N,12223.249,W,065900,A,A*5D
$APHDG,345.4,,,13.0,E*07
$APHDM,345.4,M*35
$APRSA,8.1,A*37
$APHDT,358.4,T*39
$GPRMC,065900,A,3746.830,N,12223.249,W,0.0,000.0,291219,013.0,E,A*03
$GPVTG,000.0,T,347.0,M,0.0,N,,K,A*0D
$GPVTG,000.0,T,347.0,M,0.0,N,,K,A*0D
$GPGLL,3746.830,N,12223.249,W,065900,A,A*5D
$APHDG,345.1,,,13.0,E*02
$APHDM,345.0,M*31
$APRSA,8.5,A*33
$APHDT,357.9,T*3B
$GPRMC,065900,A,3746.830,N,12223.249,W,0.0,000.0,291219,013.0,E,A*03
$GPVTG,000.0,T,347.0,M,0.0,N,,K,A*0D
$GPVTG,000.0,T,347.0,M,0.0,N,,K,A*0D
$GPGLL,3746.830,N,12223.249,W,065900,A,A*5D
$APHDG,344.5,,,13.0,E*07
$APHDM,344.5,M*35
$APRSA,8.5,A*33
$APHDT,357.4,T*36
$GPRMC,065910,A,3746.830,N,12223.249,W,0.0,000.0,291219,013.0,E,A*02
$GPVTG,000.0,T,347.0,M,0.0,N,,K,A*0D
$GPVTG,000.0,T,347.0,M,0.0,N,,K,A*0D
$GPGLL,3746.830,N,12223.249,W,065910,A,A*5C
$APHDG,344.3,,,13.0,E*01
$APHDM,344.3,M*33
$APRSA,8.5,A*33
$APHDT,357.3,T*31
$GPRMC,065910,A,3746.830,N,12223.249,W,0.0,000.0,291219,013.0,E,A*02
$GPVTG,000.0,T,347.0,M,0.0,N,,K,A*0D
$GPVTG,000.0,T,347.0,M,0.0,N,,K,A*0D
$GPGLL,3746.830,N,12223.249,W,065910,A,A*5C
$APHDG,344.4,,,13.0,E*06
$APHDM,344.4,M*34
$APRSA,8.5,A*33
$APHDT,357.5,T*37
$GPRMC,065910,A,3746.830,N,12223.249,W,0.0,000.0,291219,013.0,E,A*02
$GPVTG,000.0,T,347.0,M,0.0,N,,K,A*0D
$GPVTG,000.0,T,347.0,M,0.0,N,,K,A*0D
$GPGLL,3746.830,N,12223.249,W,065910,A,A*5C
$APHDG,344.7,,,13.0,E*05
$APHDM,344.6,M*36
$APRSA,8.5,A*33
$APHDT,357.5,T*37
$GPRMC,065910,A,3746.830,N,12223.249,W,0.0,000.0,291219,013.0,E,A*02
$GPVTG,000.0,T,347.0,M,0.0,N,,K,A*0D
$GPVTG,000.0,T,347.0,M,0.0,N,,K,A*0D
$GPGLL,3746.830,N,12223.249,W,065910,A,A*5C
$APHDG,344.6,,,13.0,E*04
$APHDM,344.6,M*36
$APRSA,8.4,A*32
$APHDT,357.5,T*37
$GPRMC,065910,A,3746.830,N,12223.249,W,0.0,000.0,291219,013.0,E,A*02
$GPVTG,000.0,T,347.0,M,0.0,N,,K,A*0D
$GPVTG,000.0,T,347.0,M,0.0,N,,K,A*0D
$GPGLL,3746.830,N,12223.249,W,065910,A,A*5C
$APHDG,344.8,,,13.0,E*0A
$APHDM,344.7,M*37
$APRSA,8.5,A*33
$APHDT,357.7,T*35
$GPRMC,065910,A,3746.830,N,12223.249,W,0.0,000.0,291219,013.0,E,A*02
$GPVTG,000.0,T,347.0,M,0.0,N,,K,A*0D
$GPVTG,000.0,T,347.0,M,0.0,N,,K,A*0D
$GPGLL,3746.830,N,12223.249,W,065910,A,A*5C
$APHDG,344.7,,,13.0,E*05
$APHDM,344.8,M*38
$APRSA,8.5,A*33
$APHDT,357.8,T*3A
$GPRMC,065910,A,3746.830,N,12223.249,W,0.0,000.0,291219,013.0,E,A*02
$GPVTG,000.0,T,347.0,M,0.0,N,,K,A*0D
$GPVTG,000.0,T,347.0,M,0.0,N,,K,A*0D
$GPGLL,3746.830,N,12223.249,W,065910,A,A*5C
$APHDG,344.9,,,13.0,E*0B
$APHDM,344.9,M*39
$APRSA,8.5,A*33
$APHDT,358.0,T*3D
$GPRMC,065910,A,3746.830,N,12223.249,W,0.0,000.0,291219,013.0,E,A*02
$GPVTG,000.0,T,347.0,M,0.0,N,,K,A*0D
$GPVTG,000.0,T,347.0,M,0.0,N,,K,A*0D
$GPGLL,3746.830,N,12223.249,W,065910,A,A*5C
$APHDG,345.0,,,13.0,E*03
$APHDM,344.9,M*39
$APRSA,8.5,A*33
$APHDT,357.8,T*3A
$GPRMC,065910,A,3746.830,N,12223.249,W,0.0,000.0,291219,013.0,E,A*02
$GPVTG,000.0,T,347.0,M,0.0,N,,K,A*0D
$GPVTG,000.0,T,347.0,M,0.0,N,,K,A*0D
$GPGLL,3746.830,N,12223.249,W,065910,A,A*5C
$APHDG,344.7,,,13.0,E*05
$APHDM,344.7,M*37
$APRSA,8.5,A*33
$APHDT,357.7,T*35
$GPRMC,065910,A,3746.831,N,12223.249,W,0.0,000.0,291219,013.0,E,A*03
$GPVTG,000.0,T,347.0,M,0.0,N,,K,A*0D
$GPVTG,000.0,T,347.0,M,0.0,N,,K,A*0D
$GPGLL,3746.831,N,12223.249,W,065910,A,A*5D
$APHDG,344.7,,,13.0,E*05
$APHDM,344.6,M*36
$APRSA,8.5,A*33
$APHDT,357.5,T*37
$GPRMC,065920,A,3746.831,N,12223.249,W,0.0,000.0,291219,013.0,E,A*00
$GPVTG,000.0,T,347.0,M,0.0,N,,K,A*0D
$GPVTG,000.0,T,347.0,M,0.0,N,,K,A*0D
$GPGLL,3746.831,N,12223.249,W,065920,A,A*5E
$APHDG,344.6,,,13.0,E*04
$APHDM,344.7,M*37
$APRSA,8.5,A*33
$APHDT,357.5,T*37
$GPRMC,065920,A,3746.831,N,12223.249,W,0.0,000.0,291219,013.0,E,A*00
$GPVTG,000.0,T,347.0,M,0.0,N,,K,A*0D
$GPVTG,000.0,T,347.0,M,0.0,N,,K,A*0D
$GPGLL,3746.831,N,12223.249,W,065920,A,A*5E
$APHDG,344.7,,,13.0,E*05
$APHDM,344.7,M*37
$APRSA,8.5,A*33
$APHDT,357.8,T*3A
$GPRMC,065920,A,3746.831,N,12223.249,W,0.0,000.0,291219,013.0,E,A*00
$GPVTG,000.0,T,347.0,M,0.0,N,,K,A*0D
$GPVTG,000.0,T,347.0,M,0.0,N,,K,A*0D
$GPGLL,3746.831,N,12223.249,W,065920,A,A*5E
$APHDG,344.6,,,13.0,E*04
$APHDM,344.6,M*36
$APRSA,8.5,A*33
$APHDT,357.5,T*37
$GPRMC,065920,A,3746.831,N,12223.249,W,0.0,000.0,291219,013.0,E,A*00
$GPVTG,000.0,T,347.0,M,0.0,N,,K,A*0D
$GPVTG,000.0,T,347.0,M,0.0,N,,K,A*0D
$GPGLL,3746.831,N,12223.249,W,065920,A,A*5E
$APHDG,344.6,,,13.0,E*04
$APHDM,344.6,M*36
$APRSA,8.5,A*33
$APHDT,357.5,T*37
$GPRMC,065920,A,3746.831,N,12223.249,W,0.0,000.0,291219,013.0,E,A*00
$GPVTG,000.0,T,347.0,M,0.0,N,,K,A*0D
$GPVTG,000.0,T,347.0,M,0.0,N,,K,A*0D
$GPGLL,3746.831,N,12223.249,W,065920,A,A*5E
$APHDG,344.6,,,13.0,E*04
$APHDM,344.7,M*37
$APRSA,8.5,A*33
$APHDT,357.5,T*37
$GPRMC,065920,A,3746.831,N,12223.249,W,0.0,000.0,291219,013.0,E,A*00
$GPVTG,000.0,T,347.0,M,0.0,N,,K,A*0D
$GPVTG,000.0,T,347.0,M,0.0,N,,K,A*0D
$GPGLL,3746.830,N,12223.249,W,065920,A,A*5F
$APHDG,344.6,,,13.0,E*04
$APHDM,344.7,M*37
$APRSA,8.5,A*33
$APHDT,357.5,T*37
$GPRMC,065920,A,3746.830,N,12223.249,W,0.0,000.0,291219,013.0,E,A*01
$GPVTG,000.0,T,347.0,M,0.0,N,,K,A*0D
$GPVTG,000.0,T,347.0,M,0.0,N,,K,A*0D
$GPGLL,3746.831,N,12223.249,W,065920,A,A*5E
$APHDG,344.8,,,13.0,E*0A
$APHDM,344.7,M*37
$APRSA,8.5,A*33
$APHDT,357.8,T*3A
$GPRMC,065920,A,3746.831,N,12223.249,W,0.0,000.0,291219,013.0,E,A*00
$GPVTG,000.0,T,347.0,M,0.0,N,,K,A*0D
$GPVTG,000.0,T,347.0,M,0.0,N,,K,A*0D
$GPGLL,3746.831,N,12223.249,W,065920,A,A*5E
$APHDG,344.6,,,13.0,E*04
$APHDM,344.6,M*36
$APRSA,8.5,A*33
$APHDT,357.5,T*37
$GPRMC,065920,A,3746.831,N,12223.249,W,0.0,000.0,291219,013.0,E,A*00
$GPVTG,000.0,T,347.0,M,0.0,N,,K,A*0D
$GPVTG,000.0,T,347.0,M,0.0,N,,K,A*0D
$GPGLL,3746.831,N,12223.249,W,065920,A,A*5E
$APHDG,344.6,,,13.0,E*04
$APHDM,344.7,M*37
$APRSA,8.5,A*33
$APHDT,357.7,T*35
$GPRMC,065920,A,3746.831,N,12223.249,W,0.0,000.0,291219,013.0,E,A*00
$GPVTG,000.0,T,347.0,M,0.0,N,,K,A*0D
$GPVTG,000.0,T,347.0,M,0.0,N,,K,A*0D
$GPGLL,3746.831,N,12223.249,W,065930,A,A*5F
$APHDG,344.7,,,13.0,E*05
$APHDM,344.8,M*38
$APRSA,8.5,A*33
$APHDT,357.9,T*3B
$GPRMC,065930,A,3746.831,N,12223.249,W,0.0,000.0,291219,013.0,E,A*01
$GPVTG,000.0,T,347.0,M,0.0,N,,K,A*0D
$GPVTG,000.0,T,347.0,M,0.0,N,,K,A*0D
$GPGLL,3746.831,N,12223.249,W,065930,A,A*5F
$APHDG,345.1,,,13.0,E*02
$APHDM,345.2,M*33
$APRSA,8.5,A*33
$APHDT,358.3,T*3E
$GPRMC,065930,A,3746.831,N,12223.249,W,0.0,000.0,291219,013.0,E,A*01
$GPVTG,000.0,T,347.0,M,0.0,N,,K,A*0D
$GPVTG,000.0,T,347.0,M,0.0,N,,K,A*0D
$GPGLL,3746.831,N,12223.249,W,065930,A,A*5F
$APHDG,345.5,,,13.0,E*06
$APHDM,345.4,M*35
$APRSA,8.5,A*33
$APHDT,358.4,T*39
$GPRMC,065930,A,3746.831,N,12223.249,W,0.0,000.0,291219,013.0,E,A*01
$GPVTG,000.0,T,347.0,M,0.0,N,,K,A*0D
$GPVTG,000.0,T,347.0,M,0.0,N,,K,A*0D
$GPGLL,3746.831,N,12223.249,W,065930,A,A*5F
$APHDG,345.1,,,13.0,E*02
$APHDM,345.1,M*30
$APRSA,8.5,A*33
$APHDT,358.2,T*3F
$GPRMC,065930,A,3746.831,N,12223.249,W,0.0,000.0,291219,013.0,E,A*01
$GPVTG,000.0,T,347.0,M,0.0,N,,K,A*0D
$GPVTG,000.0,T,347.0,M,0.0,N,,K,A*0D
$GPGLL,3746.831,N,12223.249,W,065930,A,A*5F
$APHDG,345.1,,,13.0,E*02
$APHDM,345.1,M*30
$APRSA,8.5,A*33
$APHDT,358.0,T*3D
$GPRMC,065930,A,3746.831,N,12223.249,W,0.0,000.0,291219,013.0,E,A*01
$GPVTG,000.0,T,347.0,M,0.0,N,,K,A*0D
$GPVTG,000.0,T,347.0,M,0.0,N,,K,A*0D
$GPGLL,3746.831,N,12223.249,W,065930,A,A*5F
$APHDG,345.2,,,13.0,E*01
$APHDM,345.2,M*33
$APRSA,8.5,A*33
$APHDT,358.3,T*3E
$GPRMC,065930,A,3746.831,N,12223.249,W,0.0,000.0,291219,013.0,E,A*01
$GPVTG,000.0,T,347.0,M,0.0,N,,K,A*0D
$GPVTG,000.0,T,347.0,M,0.0,N,,K,A*0D
$GPGLL,3746.831,N,12223.249,W,065930,A,A*5F
$APHDG,345.2,,,13.0,E*01
$APHDM,345.1,M*30
$APRSA,8.5,A*33
$APHDT,358.0,T*3D
$GPRMC,065930,A,3746.831,N,12223.249,W,0.0,000.0,291219,013.0,E,A*01
$GPVTG,000.0,T,347.0,M,0.0,N,,K,A*0D
$GPVTG,000.0,T,347.0,M,0.0,N,,K,A*0D
$GPGLL,3746.831,N,12223.249,W,065930,A,A*5F
$APHDG,344.7,,,13.0,E*05
$APHDM,344.7,M*37
$APRSA,8.5,A*33
$APHDT,357.5,T*37
$GPRMC,065930,A,3746.831,N,12223.249,W,0.0,000.0,291219,013.0,E,A*01
$GPVTG,000.0,T,347.0,M,0.0,N,,K,A*0D
$GPVTG,000.0,T,347.0,M,0.0,N,,K,A*0D
$GPGLL,3746.831,N,12223.249,W,065930,A,A*5F
$APHDG,344.3,,,13.0,E*01
$APHDM,344.2,M*32
$APRSA,8.5,A*33
$APHDT,357.2,T*30
$GPRMC,065930,A,3746.831,N,12223.249,W,0.0,000.0,291219,013.0,E,A*01
$GPVTG,000.0,T,347.0,M,0.0,N,,K,A*0D
$GPVTG,000.0,T,347.0,M,0.0,N,,K,A*0D
$GPGLL,3746.831,N,12223.249,W,065930,A,A*5F
$APHDG,344.3,,,13.0,E*01
$APHDM,344.3,M*33
$APRSA,8.5,A*33
$APHDT,357.4,T*36
$GPRMC,065940,A,3746.831,N,12223.249,W,0.0,000.0,291219,013.0,E,A*06
$GPVTG,000.0,T,347.0,M,0.0,N,,K,A*0D
$GPVTG,000.0,T,347.0,M,0.0,N,,K,A*0D
$GPGLL,3746.831,N,12223.249,W,065940,A,A*58
$APHDG,344.8,,,13.0,E*0A
$APHDM,344.8,M*38
$APRSA,8.5,A*33
$APHDT,357.9,T*3B
$GPRMC,065940,A,3746.831,N,12223.249,W,0.0,000.0,291219,013.0,E,A*06
$GPVTG,000.0,T,347.0,M,0.0,N,,K,A*0D
$GPVTG,000.0,T,347.0,M,0.0,N,,K,A*0D
$GPGLL,3746.831,N,12223.249,W,065940,A,A*58
$APHDG,345.3,,,13.0,E