A
$GPRMC,045532,A,3806.967,N,12137.454,W,0.0,247.1,151102,15.$PSMDCN,4*1F
$APGLL,3806.9690,N,12137.4560,W,041601.00,A*18
$PSMDCN,1*1A
$GPDPT,2.6,-0.8*76
$PSMDCN,4*1F
$APVTG,247.1,T,231.9,M,0.1,N,0.1,K*41
$PSMDCN,1*1A
$GPGGA,050530,3806.967,N,12137.455,W,1,9,2.0,7,M,,M,,*68
$PSMDCN,1*1A
$GPRMC,050530,A,3806.967,N,12137.455,W,0.0,247.1,151102,15.2,E*50
$PSMDCN,1*1A
$GPZDA,050530,15,11,2002,07,00*48
$PSMDCN,4*1F
$APRSA,0.4,A,,*3A
$PSMDCN,4*1F
$APXTE,A,A,0.000,L,N*58
$PSMDCN,1*1A
$GPDPT,2.6,-0.8*76
$PSMDCN,4*1F
$APGLL,3806.9690,N,12137.4560,W,041601.00,A*18
$PSMDCN,1*1A
$GPGGA,050531,3806.967,N,12137.454,W,1,9,2.0,7,M,,M,,*68
$PSMDCN,4*1F
$APVTG,247.1,T,231.9,M,0.1,N,0.1,K*41
$PSMDCN,1*1A
$GPZDA,050531,15,11,2002,07,00*49
$PSMDCN,1*1A
$PFEC,GPint,ast01*13
$PSMDCN,1*1A
$PFEC,idfnc,R,*08
$PSMDCN,4*1F
$APRSA,0.4,A,,*3A
$PSMDCN,1*1A
$PFEC,idfnc,A,1*2A
$PSMDCN,4*1F
$APGLL,3806.9690,N,12137.4560,W,041601.00,A*18
$PSMDCN,1*1A
$GPAPB,A,A,0.000,L,N,V,V,128.0,M,1001,128.0,M,,M*25
$PSMDCN,4*1F
$APVTG,247.1,T,231.9,M,0.1,N,0.1,K*41
$PSMDCN,1*1A
$GPDPT,2.6,-0.8*76
$PSMDCN,1*1A
$GPGGA,050532,3806.967,N,12137.455,W,1,9,2.0,7,M,,M,,*6A
$PSMDCN,1*1A
$GPRMC,050532,A,3806.967,N,12137.455,W,0.0,247.1,151102,15.2,E*52
$PSMDCN,4*1F
$APRSA,0.4,A,,*3A
$PSMDCN,1*1A
$GPZDA,050532,15,11,2002,07,00*4A
$PSMDCN,1*1A
$GPDPT,2.6,-0.8*76
$PSMDCN,4*1F
$APGLL,3806.9690,N,12137.4560,W,041601.00,A*18
$PSMDCN,1*1A
$GPGGA,050533,3806.967,N,12137.454,W,1,9,2.0,7,M,,M,,*6A
$PSMDCN,4*1F
$APVTG,247.1,T,231.9,M,0.1,N,0.1,K*41
$PSMDCN,1*1A
$GPZDA,050533,15,11,2002,07,00*4B
$PSMDCN,4*1F
$APRSA,0.4,A,,*3A
$PSMDCN,4*1F
$APDBT,8.5,f,2.6,M,1.4,F*0C
$PSMDCN,1*1A
$GPDPT,2.6,-0.8*76
$PSMDCN,4*1F
$APGLL,3806.9690,N,12137.4560,W,041601.00,A*18
$PSMDCN,1*1A
$GPGGA,050534,3806.967,N,12137.455,W,1,9,2.0,7,M,,M,,*6C
$PSMDCN,4*1F
$APVTG,247.1,T,231.9,M,0.1,N,0.1,K*41
$PSMDCN,1*1A
$GPRMC,050534,A,3806.967,N,12137.455,W,0.0,247.1,151102,15.2,E*54
$PSMDCN,1*1A
$GPZDA,050534,15,11,2002,07,00*4C
$PSMDCN,4*1F
$APRSA,0.4,A,,*3A
$PSMDCN,4*1F
$APDBT,8.5,f,2.6,M,1.4,F*0C
$PSMDCN,4*1F
$APXTE,A,A,0.000,L,N*58
$PSMDCN,1*1A
$GPDPT,2.6,-0.8*76
$PSMDCN,1*1A
$GPGGA,050535,3806.967,N,12137.454,W,1,9,2.0,7,M,,M,,*6C
$PSMDCN,4*1F
$APGLL,3806.9690,N,12137.4560,W,041601.00,A*18
$PSMDCN,1*1A
$GPZDA,050535,15,11,2002,07,00*4D
$PSMDCN,4*1F
$APVTG,247.1,T,231.9,M,0.1,N,0.1,K*41
$PSMDCN,4*1F
$APRSA,0.4,A,,*3A
$PSMDCN,4*1F
$APDBT,8.5,f,2.6,M,1.4,F*0C
$PSMDCN,1*1A
$GPAPB,A,A,0.000,L,N,V,V,128.0,M,1001,128.0,M,,M*25
$PSMDCN,4*1F
$APGLL,3806.9690,N,12137.4560,W,041601.00,A*18
$PSMDCN,1*1A
$GPDPT,2.6,-0.8*76
$PSMDCN,4*1F
$APVTG,247.1,T,231.9,M,0.1,N,0.1,K*41
$PSMDCN,1*1A
$GPGGA,050536,3806.967,N,12137.455,W,1,9,2.0,7,M,,M,,*6E
$PSMDCN,1*1A
$GPRMC,050536,A,3806.967,N,12137.455,W,0.0,247.1,151102,15.2,E*56
$PSMDCN,1*1A
$GPZDA,050536,15,11,2002,07,00*4E
$PSMDCN,4*1F
$APDBT,8.5,f,2.6,M,1.4,F*0C
$PSMDCN,1*1A
$GPDPT,2.6,-0.8*76
$PSMDCN,1*1A
$GPGGA,050537,3806.967,N,12137.454,W,1,9,2.0,7,M,,M,,*6E
$PSMDCN,4*1F
$APGLL,3806.9690,N,12137.4560,W,041601.00,A*18
$PSMDCN,1*1A
$GPZDA,050537,15,11,2002,07,00*4F
$PSMDCN,4*1F
$APVTG,247.1,T,231.9,M,0.1,N,0.1,K*41
$PSMDCN,4*1F
$APRSA,0.4,A,,*3A
$PSMDCN,4*1F
$APDBT,8.5,f,2.6,M,1.4,F*0C
$PSMDCN,1*1A
$GPDPT,2.6,-0.8*76
$PSMDCN,1*1A
$GPGGA,050538,3806.967,N,12137.455,W,1,9,2.0,7,M,,M,,*60
$PSMDCN,4*1F
$APGLL,3806.9690,N,12137.4560,W,041601.00,A*18
$PSMDCN,1*1A
$GPRMC,050538,A,3806.967,N,12137.455,W,0.0,247.1,151102,15.2,E*58
$PSMDCN,4*1F
$APVTG,247.1,T,231.9,M,0.1,N,0.1,K*41
$PSMDCN,1*1A
$GPZDA,050538,15,11,2002,07,00*40
$PSMDCN,4*1F
$APRSA,0.4,A,,*3A
$PSMDCN,4*1F
$APDBT,8.5,f,2.6,M,1.4,F*0C
$PSMDCN,4*1F
$APXTE,A,A,0.000,L,N*58
$PSMDCN,1*1A
$GPDPT,2.6,-0.8*76
$PSMDCN,1*1A
$GPGGA,050539,3806.967,N,12137.454,W,1,9,2.0,7,M,,M,,*60
$PSMDCN,1*1A
$GPZDA,050539,15,11,2002,07,00*41
$PSMDCN,4*1F
$APGLL,3806.9690,N,12137.4560,W,041601.00,A*18
$PSMDCN,4*1F
$APVTG,247.1,T,231.9,M,0.1,N,0.1,K*41
$PSMDCN,4*1F
$APRSA,0.4,A,,*3A
$PSMDCN,4*1F
$APDBT,8.5,f,2.6,M,1.4,F*0C
$PSMDCN,1*1A
$GPAPB,A,A,0.000,L,N,V,V,128.0,M,1001,128.0,M,,M*25
$PSMDCN,1*1A
$GPDPT,2.6,-0.8*76
$PSMDCN,1*1A
$GPGGA,050540,3806.967,N,12137.455,W,1,9,2.0,7,M,,M,,*6F
$PSMDCN,4*1F
$APGLL,3806.9690,N,12137.4560,W,041601.00,A*18
$PSMDCN,1*1A
$GPRMC,050540,A,3806.967,N,12137.455,W,0.0,247.1,151102,15.2,E*57
$PSMDCN,4*1F
$APVTG,247.1,T,231.9,M,0.1,N,0.1,K*41
$PSMDCN,1*1A
$GPZDA,050540,15,11,2002,07,00*4F
$PSMDCN,4*1F
$APRSA,0.4,A,,*3A
$PSMDCN,4*1F
$APDBT,8.5,f,2.6,M,1.4,F*0C
$PSMDCN,1*1A
$GPDPT,2.6,-0.8*76
$PSMDCN,1*1A
$GPGGA,050541,3806.967,N,12137.454,W,1,9,2.0,7,M,,M,,*6F
$PSMDCN,1*1A
$GPZDA,050541,15,11,2002,07,00*4E
$PSMDCN,4*1F
$APGLL,3806.9690,N,12137.4560,W,041601.00,A*18
$PSMDCN,1*1A
$PFEC,GPint,ast01*13
$PSMDCN,1*1A
$PFEC,idfnc,R,*08
$PSMDCN,1*1A
$PFEC,idfnc,A,1*2A
$PSMDCN,4*1F
$APRSA,0.4,A,,*3A
$PSMDCN,4*1F
$APDBT,8.5,f,2.6,M,1.4,F*0C
$PSMDCN,1*1A
$GPDPT,2.6,-0.8*76
$PSMDCN,1*1A
$GPGGA,050542,3806.967,N,12137.455,W,1,9,2.0,7,M,,M,,*6D
$PSMDCN,1*1A
$GPRMC,050542,A,3806.967,N,12137.455,W,0.0,247.1,151102,15.2,E*55
$PSMDCN,4*1F
$APGLL,3806.9690,N,12137.4560,W,041601.00,A*18
$PSMDCN,1*1A
$GPZDA,050542,15,11,2002,07,00*4D
$PSMDCN,4*1F
$APVTG,247.1,T,231.9,M,0.1,N,0.1,K*41
$PSMDCN,4*1F
$APXTE,A,A,0.000,L,N*58
$PSMDCN,4*1F
$APRSA,0.4,A,,*3A
$PSMDCN,1*1A
$GPDPT,2.6,-0.8*76
$PSMDCN,4*1F
$APDBT,8.5,f,2.6,M,1.4,F*0C
$PSMDCN,1*1A
$GPGGA,050543,3806.967,N,12137.454,W,1,9,2.0,7,M,,M,,*6D
$PSMDCN,1*1A
$GPZDA,050543,15,11,2002,07,00*4C
$PSMDCN,4*1F
$APGLL,3806.9690,N,12137.4560,W,041601.00,A*18
$PSMDCN,4*1F
$APVTG,247.1,T,231.9,M,0.1,N,0.1,K*41
$PSMDCN,4*1F
$APRSA,0.4,A,,*3A
$PSMDCN,4*1F
$APDBT,8.5,f,2.6,M,1.4,F*0C
$PSMDCN,1*1A
$GPAPB,A,A,0.000,L,N,V,V,128.0,M,1001,128.0,M,,M*25
$PSMDCN,1*1A
$GPDPT,2.6,-0.8*76
$PSMDCN,1*1A
$GPGGA,050544,3806.967,N,12137.455,W,1,9,2.0,7,M,,M,,*6B
$PSMDCN,1*1A
$GPRMC,050544,A,3806.967,N,12137.455,W,0.0,247.1,151102,15.2,E*53
$PSMDCN,4*1F
$APGLL,3806.9690,N,12137.4560,W,041601.00,A*18
$PSMDCN,1*1A
$GPZDA,050544,15,11,2002,07,00*4B
$PSMDCN,4*1F
$APVTG,247.1,T,231.9,M,0.1,N,0.1,K*41
$PSMDCN,1*1A
$GPDPT,2.6,-0.8*76
$PSMDCN,4*1F
$APRSA,0.4,A,,*3A
$PSMDCN,4*1F
$APDBT,8.5,f,2.6,M,1.4,F*0C
$PSMDCN,1*1A
$GPGGA,050545,3806.967,N,12137.454,W,1,9,2.0,7,M,,M,,*6B
$PSMDCN,1*1A
$GPZDA,050545,15,11,2002,07,00*4A
$PSMDCN,4*1F
$APGLL,3806.9690,N,12137.4560,W,041601.00,A*18
$PSMDCN,4*1F
$APVTG,247.1,T,231.9,M,0.1,N,0.1,K*41
$PSMDCN,1*1A
$GPDPT,2.6,-0.8*76
$PSMDCN,4*1F
$APRSA,0.4,A,,*3A
$PSMDCN,4*1F
$APDBT,8.5,f,2.6,M,1.4,F*0C
$PSMDCN,1*1A
$GPGGA,050546,3806.967,N,12137.455,W,1,9,2.0,7,M,,M,,*69
$PSMDCN,1*1A
$GPRMC,050546,A,3806.967,N,12137.455,W,0.0,247.1,151102,15.2,E*51
$PSMDCN,1*1A
$GPZDA,050546,15,11,2002,07,00*49
$PSMDCN,4*1F
$APVTG,247.1,T,231.9,M,0.1,N,0.1,K*41
$PSMDCN,4*1F
$APXTE,A,A,0.000,L,N*58
$PSMDCN,1*1A
$GPDPT,2.6,-0.8*76
$PSMDCN,4*1F
$APRSA,0.4,A,,*3A
$PSMDCN,1*1A
$GPGGA,050547,3806.967,N,12137.454,W,1,9,2.0,7,M,,M,,*69
$PSMDCN,4*1F
$APDBT,8.5,f,2.6,M,1.4,F*0C
$PSMDCN,1*1A
$GPZDA,050547,15,11,2002,07,00*48
$PSMDCN,4*1F
$APGLL,3806.9690,N,12137.4560,W,041601.00,A*18
$PSMDCN,4*1F
$APVTG,247.1,T,231.9,M,0.1,N,0.1,K*41
$PSMDCN,1*1A
$GPAPB,A,A,0.000,L,N,V,V,128.0,M,1001,128.0,M,,M*25
$PSMDCN,4*1F
$APRSA,0.4,A,,*3A
$PSMDCN,1*1A
$GPDPT,2.6,-0.8*76
$PSMDCN,4*1F
$APDBT,8.5,f,2.6,M,1.4,F*0C
$PSMDCN,1*1A
$GPGGA,050548,3806.967,N,12137.455,W,1,9,2.0,7,M,,M,,*67
$PSMDCN,1*1A
$GPRMC,050548,A,3806.967,N,12137.455,W,0.0,247.1,151102,15.2,E*5F
$PSMDCN,4*1F
$APVTG,247.1,T,231.9,M,0.1,N,0.1,K*41
$PSMDCN,1*1A
$GPZDA,050548,15,11,2002,07,00*47
$PSMDCN,1*1A
$GPDPT,2.6,-0.8*76
$PSMDCN,1*1A
$GPGGA,050549,3806.968,N,12137.454,W,1,9,2.0,7,M,,M,,*68
$PSMDCN,4*1F
$APRSA,0.4,A,,*3A
$PSMDCN,1*1A
$GPZDA,050549,15,11,2002,07,00*46
$PSMDCN,4*1F
$APDBT,8.5,f,2.6,M,1.4,F*0C
$PSMDCN,4*1F
$APGLL,3806.9690,N,12137.4560,W,041601.00,A*18
$PSMDCN,4*1F
$APVTG,247.1,T,231.9,M,0.1,N,0.1,K*41
$PSMDCN,1*1A
$GPDPT,2.6,-0.8*76
$PSMDCN,1*1A
$GPGGA,050550,3806.968,N,12137.455,W,1,9,2.0,7,M,,M,,*61
$PSMDCN,4*1F
$APRSA,0.4,A,,*3A
$PSMDCN,1*1A
$GPRMC,050550,A,3806.968,N,12137.455,W,0.0,247.1,151102,15.2,E*59
$PSMDCN,4*1F
$APDBT,8.5,f,2.6,M,1.4,F*0C
$PSMDCN,1*1A
$GPZDA,050550,15,11,2002,07,00*4E
$PSMDCN,4*1F
$APGLL,3806.9690,N,12137.4560,W,041601.00,A*18
$PSMDCN,4*1F
$APVTG,247.1,T,231.9,M,0.1,N,0.1,K*41
$PSMDCN,4*1F
$APXTE,A,A,0.000,L,N*58
$PSMDCN,1*1A
$GPDPT,2.6,-0.8*76
$PSMDCN,1*1A
$GPGGA,050551,3806.968,N,12137.455,W,1,9,2.0,7,M,,M,,*60
$PSMDCN,4*1F
$APRSA,0.4,A,,*3A
$PSMDCN,1*1A
$GPZDA,050551,15,11,2002,07,00*4F
$PSMDCN,4*1F
$APDBT,8.5,f,2.6,M,1.4,F*0C
$PSMDCN,1*1A
$PFEC,GPint,ast01*13
$PSMDCN,1*1A
$PFEC,idfnc,R,*08
$PSMDCN,1*1A
$PFEC,idfnc,A,1*2A
$PSMDCN,4*1F
$APGLL,3806.9690,N,12137.4560,W,041601.00,A*18
$PSMDCN,4*1F
$APVTG,247.1,T,231.9,M,0.1,N,0.1,K*41
$PSMDCN,1*1A
$GPAPB,A,A,0.000,L,N,V,V,128.0,M,1001,128.0,M,,M*25
$PSMDCN,1*1A
$GPDPT,2.6,-0.8*76
$PSMDCN,4*1F
$APRSA,0.4,A,,*3A
$PSMDCN,1*1A
$GPGGA,050552,3806.968,N,12137.455,W,1,9,2.0,7,M,,M,,*63
$PSMDCN,4*1F
$APDBT,8.5,f,2.6,M,1.4,F*0C
$PSMDCN,1*1A
$GPRMC,050552,A,3806.968,N,12137.455,W,0.0,247.1,151102,15.2,E*5B
$PSMDCN,1*1A
$GPZDA,050552,15,11,2002,07,00*4C
$PSMDCN,4*1F
$APVTG,247.1,T,231.9,M,0.1,N,0.1,K*41
$PSMDCN,1*1A
$GPDPT,2.6,-0.8*76
$PSMDCN,1*1A
$GPGGA,050553,3806.968,N,12137.455,W,1,9,2.0,7,M,,M,,*62
$PSMDCN,1*1A
$GPZDA,050553,15,11,2002,07,00*4D
$PSMDCN,4*1F
$APRSA,0.4,A,,*3A
$PSMDCN,4*1F
$APDBT,8.5,f,2.6,M,1.4,F*0C
$PSMDCN,4*1F
$APGLL,3806.9690,N,12137.4560,W,041601.00,A*18
$PSMDCN,4*1F
$APVTG,247.1,T,231.9,M,0.1,N,0.1,K*41
$PSMDCN,1*1A
$GPDPT,2.6,-0.8*76
$PSMDCN,1*1A
$GPGGA,050554,3806.968,N,12137.455,W,1,9,2.0,7,M,,M,,*65
$PSMDCN,1*1A
$GPRMC,050554,A,3806.968,N,12137.455,W,0.0,247.1,151102,15.2,E*5D
$PSMDCN,4*1F
$APRSA,0.4,A,,*3A
$PSMDCN,1*1A
$GPZDA,050554,15,11,2002,07,00*4A
$PSMDCN,4*1F
$APDBT,8.5,f,2.6,M,1.4,F*0C
$PSMDCN,4*1F
$APGLL,3806.9690,N,12137.4560,W,041601.00,A*18
$PSMDCN,4*1F
$APVTG,247.1,T,231.9,M,0.1,N,0.1,K*41
$PSMDCN,4*1F
$APXTE,A,A,0.000,L,N*58
$PSMDCN,1*1A
$GPDPT,2.6,-0.8*76
$PSMDCN,1*1A
$GPGGA,050555,3806.968,N,12137.455,W,1,9,2.0,7,M,,M,,*64
$PSMDCN,1*1A
$GPZDA,050555,15,11,2002,07,00*4B
$PSMDCN,4*1F
$APRSA,0.4,A,,*3A
$PSMDCN,4*1F
$APDBT,8.5,f,2.6,M,1.4,F*0C
$PSMDCN,4*1F
$APGLL,3806.9690,N,12137.4560,W,041601.00,A*18
$PSMDCN,4*1F
$APVTG,247.1,T,231.9,M,0.1,N,0.1,K*41
$PSMDCN,1*1A
$GPAPB,A,A,0.000,L,N,V,V,128.0,M,1001,128.0,M,,M*25
$PSMDCN,1*1A
$GPDPT,2.6,-0.8*76
$PSMDCN,1*1A
$GPGGA,050556,3806.968,N,12137.455,W,1,9,2.0,7,M,,M,,*67
$PSMDCN,4*1F
$APRSA,0.4,A,,*3A
$PSMDCN,1*1A
$GPRMC,050556,A,3806.968,N,12137.455,W,0.0,247.1,151102,15.2,E*5F
$PSMDCN,4*1F
$APDBT,8.5,f,2.6,M,1.4,F*0C
$PSMDCN,1*1A
$GPZDA,050556,15,11,2002,07,00*48
$PSMDCN,4*1F
$APGLL,3806.9690,N,12137.4560,W,041601.00,A*18
$PSMDCN,4*1F
$APVTG,247.1,T,231.9,M,0.1,N,0.1,K*41
$PSMDCN,1*1A
$GPDPT,2.6,-0.8*76
$PSMDCN,1*1A
$GPGGA,050557,3806.968,N,12137.455,W,1,9,2.0,7,M,,M,,*66
$PSMDCN,1*1A
$GPZDA,050557,15,11,2002,07,00*49
$PSMDCN,4*1F
$APRSA,0.4,A,,*3A
$PSMDCN,4*1F
$APDBT,8.5,f,2.6,M,1.4,F*0C
$PSMDCN,4*1F
$APGLL,3806.9690,N,12137.4560,W,041601.00,A*18
$PSMDCN,4*1F
$APVTG,247.1,T,231.9,M,0.1,N,0.1,K*41
$PSMDCN,1*1A
$GPDPT,2.6,-0.8*76
$PSMDCN,1*1A
$GPGGA,050558,3806.968,N,12137.455,W,1,9,2.0,7,M,,M,,*69
$PSMDCN,1*1A
$GPRMC,050558,A,3806.968,N,12137.455,W,0.1,247.1,151102,15.2,E*50
$PSMDCN,4*1F
$APRSA,0.4,A,,*3A
$PSMDCN,1*1A
$GPZDA,050558,15,11,2002,07,00*46
$PSMDCN,4*1F
$APDBT,8.5,f,2.6,M,1.4,F*0C
$PSMDCN,4*1F
$APGLL,3806.9690,N,12137.4560,W,041601.00,A*18
$PSMDCN,4*1F
$APVTG,247.1,T,231.9,M,0.1,N,0.1,K*41
$PSMDCN,1*1A
$GPDPT,2.6,-0.8*76
$PSMDCN,4*1F
$APXTE,A,A,0.000,L,N*58
$PSMDCN,1*1A
$GPGGA,050559,3806.968,N,12137.455,W,1,10,2.0,7,M,,M,,*50
$PSMDCN,1*1A
$GPZDA,050559,15,11,2002,07,00*47
$PSMDCN,4*1F
$APRSA,0.4,A,,*3A
$PSMDCN,4*1F
$APDBT,8.5,f,2.6,M,1.4,F*0C
$PSMDCN,4*1F
$APGLL,3806.9690,N,12137.4560,W,041601.00,A*18
$PSMDCN,4*1F
$APVTG,247.1,T,231.9,M,0.1,N,0.1,K*41
$PSMDCN,1*1A
$GPAPB,A,A,0.000,L,N,V,V,128.0,M,1001,128.0,M,,M*25
$PSMDCN,1*1A
$GPDPT,2.6,-0.8*76
$PSMDCN,1*1A
$GPGGA,050600,3806.968,N,12137.455,W,1,10,1.5,7,M,,M,,*59
$PSMDCN,1*1A
$GPRMC,050600,A,3806.968,N,12137.455,W,0.0,247.1,151102,15.2,E*5F
$PSMDCN,4*1F
$APRSA,0.4,A,,*3A
$PSMDCN,1*1A
$GPZDA,050600,15,11,2002,07,00*48
$PSMDCN,4*1F
$APGLL,3806.9690,N,12137.4560,W,041601.00,A*18
$PSMDCN,1*1A
$GPDPT,2.6,-0.8*76
$PSMDCN,4*1F
$APVTG,247.1,T,231.9,M,0.1,N,0.1,K*41
$PSMDCN,1*1A
$GPGGA,050601,3806.968,N,12137.455,W,1,10,1.5,7,M,,M,,*58
$PSMDCN,1*1A
$GPZDA,050601,15,11,2002,07,00*49
$PSMDCN,1*1A
$PFEC,GPint,ast01*13
$PSMDCN,1*1A
$PFEC,idfnc,R,*08
$PSMDCN,4*1F
$APRSA,0.4,A,,*3A
$PSMDCN,1*1A
$PFEC,idfnc,A,1*2A
$PSMDCN,4*1F
$APDBT,8.5,f,2.6,M,1.4,F*0C
$PSMDCN,4*1F
$APGLL,3806.9690,N,12137.4560,W,041601.00,A*18
$PSMDCN,1*1A
$GPDPT,2.6,-0.8*76
$PSMDCN,4*1F
$APVTG,247.1,T,231.9,M,0.1,N,0.1,K*41
$PSMDCN,1*1A
$GPGGA,050602,3806.968,N,12137.455,W,1,10,1.5,7,M,,M,,*5B
$PSMDCN,1*1A
$GPRMC,050602,A,3806.968,N,12137.455,W,0.0,247.1,151102,15.2,E*5D
$PSMDCN,1*1A
$GPZDA,050602,15,11,2002,07,00*4A
$PSMDCN,4*1F
$APRSA,0.4,A,,*3A
$PSMDCN,4*1F
$APGLL,3806.9690,N,12137.4560,W,041601.00,A*18
$PSMDCN,1*1A
$GPDPT,2.6,-0.8*76
$PSMDCN,4*1F
$APVTG,247.1,T,231.9,M,0.1,N,0.1,K*41
$PSMDCN,1*1A
$GPGGA,050603,3806.968,N,12137.455,W,1,10,1.5,7,M,,M,,*5A
$PSMDCN,4*1F
$APXTE,A,A,0.000,L,N*58
$PSMDCN,1*1A
$GPZDA,050603,15,11,2002,07,00*4B
$PSMDCN,4*1F
$APRSA,0.4,A,,*3A
$PSMDCN,4*1F
$APDBT,8.5,f,2.6,M,1.4,F*0C
$PSMDCN,4*1F
$APGLL,3806.9690,N,12137.4560,W,041601.00,A*18
$PSMDCN,1*1A
$GPAPB,A,A,0.000,L,N,V,V,128.0,M,1001,128.0,M,,M*25
$PSMDCN,4*1F
$APVTG,247.1,T,231.9,M,0.1,N,0.1,K*41
$PSMDCN,1*1A
$GPDPT,2.6,-0.8*76
$PSMDCN,1*1A
$GPGGA,050604,3806.968,N,12137.455,W,1,10,1.5,7,M,,M,,*5D
$PSMDCN,1*1A
$GPRMC,050604,A,3806.968,N,12137.455,W,0.0,247.1,151102,15.2,E*5B
$PSMDCN,4*1F
$APRSA,0.4,A,,*3A
$PSMDCN,1*1A
$GPZDA,050604,15,11,2002,07,00*4C
$PSMDCN,1*1A
$GPDPT,2.6,-0.8*76
$PSMDCN,4*1F
$APGLL,3806.9690,N,12137.4560,W,041601.00,A*18
$PSMDCN,1*1A
$GPGGA,050605,3806.968,N,12137.455,W,1,10,1.5,7,M,,M,,*5C
$PSMDCN,4*1F
$APVTG,247.1,T,231.9,M,0.1,N,0.1,K*41
$PSMDCN,1*1A
$GPZDA,050605,15,11,2002,07,00*4D
$PSMDCN,4*1F
$APRSA,0.4,A,,*3A
$PSMDCN,4*1F
$APDBT,8.5,f,2.6,M,1.4,F*0C
$PSMDCN,1*1A
$GPDPT,2.6,-0.8*76
$PSMDCN,4*1F
$APGLL,3806.9690,N,12137.4560,W,041601.00,A*18
$PSMDCN,1*1A
$GPGGA,050606,3806.968,N,12137.455,W,1,10,1.5,7,M,,M,,*5F
$PSMDCN,4*1F
$APVTG,247.1,T,231.9,M,0.1,N,0.1,K*41
$PSMDCN,1*1A
$GPRMC,050606,A,3806.968,N,12137.455,W,0.0,247.1,151102,15.2,E*59
$PSMDCN,1*1A
$GPZDA,050606,15,11,2002,07,00*4E
$PSMDCN,4*1F
$APRSA,0.4,A,,*3A
$PSMDCN,4*1F
$APDBT,8.5,f,2.6,M,1.4,F*0C
$PSMDCN,1*1A
$GPDPT,2.6,-0.8*76
$PSMDCN,4*1F
$APGLL,3806.9690,N,12137.4560,W,041601.00,A*18
$PSMDCN,1*1A
$GPGGA,050607,3806.968,N,12137.455,W,1,10,1.5,7,M,,M,,*5E
$PSMDCN,4*1F
$APXTE,A,A,0.000,L,N*58
$PSMDCN,1*1A
$GPZDA,050607,15,11,2002,07,00*4F
$PSMDCN,4*1F
$APVTG,247.1,T,231.9,M,0.1,N,0.1,K*41
$PSMDCN,4*1F
$APRSA,0.4,A,,*3A
$PSMDCN,4*1F
$APDBT,8.5,f,2.6,M,1.4,F*0C
$PSMDCN,1*1A
$GPAPB,A,A,0.000,L,N,V,V,128.0,M,1001,128.0,M,,M*25
$PSMDCN,4*1F
$APGLL,3806.9690,N,12137.4560,W,041601.00,A*18
$PSMDCN,1*1A
$GPDPT,2.6,-0.8*76
$PSMDCN,4*1F
$APVTG,247.1,T,231.9,M,0.1,N,0.1,K*41
$PSMDCN,1*1A
$GPGGA,050608,3806.968,N,12137.455,W,1,10,1.5,7,M,,M,,*51
$PSMDCN,1*1A
$GPRMC,050608,A,3806.968,N,12137.455,W,0.0,247.1,151102,15.2,E*57
$PSMDCN,1*1A
$GPZDA,050608,15,11,2002,07,00*40
$PSMDCN,1*1A
$GPDPT,2.6,-0.8*76
$PSMDCN,1*1A
$GPGGA,050609,3806.968,N,12137.455,W,1,10,1.5,7,M,,M,,*50
$PSMDCN,4*1F
$APGLL,3806.9690,N,12137.4560,W,041601.00,A*18
$PSMDCN,1*1A
$GPZDA,050609,15,11,2002,07,00*41
$PSMDCN,4*1F
$APVTG,247.1,T,231.9,M,0.1,N,0.1,K*41
$PSMDCN,4*1F
$APRSA,0.4,A,,*3A
$PSMDCN,4*1F
$APDBT,8.5,f,2.6,M,1.4,F*0C
$PSMDCN,1*1A
$GPDPT,2.6,-0.8*76
$PSMDCN,1*1A
$GPGGA,050610,3806.968,N,12137.455,W,1,10,1.5,7,M,,M,,*58
$PSMDCN,4*1F
$APGLL,3806.9690,N,12137.4560,W,041601.00,A*18
$PSMDCN,1*1A
$GPRMC,050610,A,3806.968,N,12137.455,W,0.0,247.1,151102,15.2,E*5E
$PSMDCN,4*1F
$APVTG,247.1,T,231.9,M,0.1,N,0.1,K*41
$PSMDCN,1*1A
$GPZDA,050610,15,11,2002,07,00*49
$PSMDCN,4*1F
$APRSA,0.4,A,,*3A
$PSMDCN,4*1F
$APDBT,8.5,f,2.6,M,1.4,F*0C
$PSMDCN,1*1A
$GPDPT,2.6,-0.8*76
$PSMDCN,1*1A
$GPGGA,050611,3806.968,N,12137.455,W,1,10,1.5,7,M,,M,,*59
$PSMDCN,4*1F
$APXTE,A,A,0.000,L,N*58
$PSMDCN,1*1A
$GPZDA,050611,15,11,2002,07,00*48
$PSMDCN,4*1F
$APGLL,3806.9690,N,12137.4560,W,041601.00,A*18
$PSMDCN,1*1A
$PFEC,GPint,ast01*13
$PSMDCN,4*1F
$APVTG,247.1,T,231.9,M,0.1,N,0.1,K*41
$PSMDCN,1*1A
$PFEC,idfnc,R,*08
$PSMDCN,1*1A
$PFEC,idfnc,A,1*2A
$PSMDCN,4*1F
$APRSA,0.4,A,,*3A
$PSMDCN,4*1F
$APDBT,8.5,f,2.6,M,1.4,F*0C
$PSMDCN,1*1A
$GPAPB,A,A,0.000,L,N,V,V,128.0,M,1001,128.0,M,,M*25
$PSMDCN,1*1A
$GPDPT,2.6,-0.8*76
$PSMDCN,1*1A
$GPGGA,050612,3806.968,N,12137.455,W,1,10,1.5,6,M,,M,,*5B
$PSMDCN,4*1F
$APGLL,3806.9690,N,12137.4560,W,041601.00,A*18
$PSMDCN,1*1A
$GPRMC,050612,A,3806.968,N,12137.455,W,0.0,247.1,151102,15.2,E*5C
$PSMDCN,4*1F
$APVTG,247.1,T,231.9,M,0.1,N,0.1,K*41
$PSMDCN,1*1A
$GPZDA,050612,15,11,2002,07,00*4B
$PSMDCN,4*1F
$APRSA,0.4,A,,*3A
$PSMDCN,4*1F
$APDBT,8.5,f,2.6,M,1.4,F*0C
$PSMDCN,1*1A
$GPDPT,2.6,-0.8*76
$PSMDCN,1*1A
$GPGGA,050613,3806.968,N,12137.455,W,1,10,1.5,6,M,,M,,*5A
$PSMDCN,1*1A
$GPZDA,050613,15,11,2002,07,00*4A
$PSMDCN,4*1F
$APGLL,3806.9690,N,12137.4560,W,041601.00,A*18
$PSMDCN,4*1F
$APVTG,247.1,T,231.9,M,0.1,N,0.1,K*41
$PSMDCN,4*1F
$APRSA,0.4,A,,*3A
$PSMDCN,4*1F
$APDBT,8.5,f,2.6,M,1.4,F*0C
$PSMDCN,1*1A
$GPDPT,2.6,-0.8*76
$PSMDCN,1*1A
$GPGGA,050614,3806.968,N,12137.455,W,1,10,1.5,6,M,,M,,*5D
$PSMDCN,1*1A
$GPRMC,050614,A,3806.968,N,12137.455,W,0.0,247.1,151102,15.2,E*5A
$PSMDCN,4*1F
$APGLL,3806.9690,N,12137.4560,W,041601.00,A*18
$PSMDCN,1*1A
$GPZDA,050614,15,11,2002,07,00*4D
$PSMDCN,4*1F
$APVTG,247.1,T,231.9,M,0.1,N,0.1,K*41
$PSMDCN,4*1F
$APRSA,0.4,A,,*3A
$PSMDCN,4*1F
$APDBT,8.5,f,2.6,M,1.4,F*0C
$PSMDCN,1*1A
$GPDPT,2.6,-0.8*76
$PSMDCN,4*1F
$APXTE,A,A,0.000,L,N*58
$PSMDCN,1*1A
$GPGGA,050615,3806.969,N,12137.455,W,1,10,1.5,6,M,,M,,*5D
$PSMDCN,1*1A
$GPZDA,050615,15,11,2002,07,00*4C
$PSMDCN,4*1F
$APGLL,3806.9690,N,12137.4560,W,041601.00,A*18
$PSMDCN,4*1F
$APRSA,0.4,A,,*3A
$PSMDCN,4*1F
$APDBT,8.5,f,2.6,M,1.4,F*0C
$PSMDCN,1*1A
$GPAPB,A,A,0.000,L,N,V,V,128.0,M,1001,128.0,M,,M*25
$PSMDCN,1*1A
$GPDPT,2.6,-0.8*76
$PSMDCN,1*1A
$GPGGA,050616,3806.969,N,12137.455,W,1,10,1.5,6,M,,M,,*5E
$PSMDCN,4*1F
$APGLL,3806.9690,N,12137.4560,W,041601.00,A*18
$PSMDCN,1*1A
$GPRMC,050616,A,3806.969,N,12137.455,W,0.0,247.1,151102,15.2,E*59
$PSMDCN,4*1F
$APVTG,247.1,T,231.9,M,0.1,N,0.1,K*41
$PSMDCN,1*1A
$GPZDA,050616,15,11,2002,07,00*4F
$PSMDCN,4*1F
$APRSA,0.4,A,,*3A
$PSMDCN,1*1A
$GPDPT,2.6,-0.8*76
$PSMDCN,4*1F
$APDBT,8.5,f,2.6,M,1.4,F*0C
$PSMDCN,1*1A
$GPGGA,050617,3806.969,N,12137.455,W,1,10,1.5,6,M,,M,,*5F
$PSMDCN,1*1A
$GPZDA,050617,15,11,2002,07,00*4E
$PSMDCN,4*1F
$APGLL,3806.9690,N,12137.4560,W,041601.00,A*18
$PSMDCN,4*1F
$APVTG,247.1,T,231.9,M,0.1,N,0.1,K*41
$PSMDCN,4*1F
$APRSA,0.4,A,,*3A
$PSMDCN,1*1A
$GPDPT,2.6,-0.8*76
$PSMDCN,4*1F
$APDBT,8.5,f,2.6,M,1.4,F*0C
$PSMDCN,1*1A
$GPGGA,050618,3806.969,N,12137.455,W,1,10,1.5,6,M,,M,,*50
$PSMDCN,1*1A
$GPRMC,050618,A,3806.969,N,12137.455,W,0.0,247.1,151102,15.2,E*57
$PSMDCN,1*1A
$GPZDA,050618,15,11,2002,07,00*41
$PSMDCN,4*1F
$APVTG,247.1,T,231.9,M,0.1,N,0.1,K*41
$PSMDCN,1*1A
$GPDPT,2.6,-0.8*76
$PSMDCN,4*1F
$APRSA,0.4,A,,*3A
$PSMDCN,4*1F
$APDBT,8.5,f,2.6,M,1.4,F*0C
$PSMDCN,1*1A
$GPGGA,050619,3806.969,N,12137.455,W,1,10,1.5,6,M,,M,,*51
$PSMDCN,4*1F
$APXTE,A,A,0.000,L,N*58
$PSMDCN,1*1A
$GPZDA,050619,15,11,2002,07,00*40
$PSMDCN,4*1F
$APVTG,247.1,T,231.9,M,0.1,N,0.1,K*41
$PSMDCN,4*1F
$APRSA,0.4,A,,*3A
$PSMDCN,1*1A
$GPAPB,A,A,0.000,L,N,V,V,128.0,M,1001,128.0,M,,M*25
$PSMDCN,4*1F
$APDBT,8.5,f,2.6,M,1.4,F*0C
$PSMDCN,1*1A
$GPDPT,2.6,-0.8*76
$PSMDCN,1*1A
$GPGGA,050620,3806.969,N,12137.455,W,1,10,1.5,6,M,,M,,*5B
$PSMDCN,1*1A
$GPRMC,050620,A,3806.969,N,12137.455,W,0.0,247.1,151102,15.2,E*5C
$PSMDCN,4*1F
$APVTG,247.1,T,231.9,M,0.1,N,0.1,K*41
$PSMDCN,1*1A
$GPZDA,050620,15,11,2002,07,00*4A
$PSMDCN,1*1A
$GPDPT,2.6,-0.8*76
$PSMDCN,4*1F
$APRSA,0.4,A,,*3A
$PSMDCN,1*1A
$GPGGA,050621,3806.969,N,12137.455,W,1,10,1.5,6,M,,M,,*5A
$PSMDCN,4*1F
$APDBT,8.5,f,2.6,M,1.4,F*0C
$PSMDCN,1*1A
$GPZDA,050621,15,11,2002,07,00*4B
$PSMDCN,1*1A
$PFEC,GPint,ast01*13
$PSMDCN,1*1A
$PFEC,idfnc,R,*08
$PSMDCN,1*1A
$PFEC,idfnc,A,1*2A
$PSMDCN,4*1F
$APVTG,247.1,T,231.9,M,0.1,N,0.1,K*41
$PSMDCN,1*1A
$GPDPT,2.6,-0.8*76
$PSMDCN,4*1F
$APRSA,0.4,A,,*3A
$PSMDCN,1*1A
$GPGGA,050622,3806.969,N,12137.455,W,1,10,1.5,6,M,,M,,*59
$PSMDCN,4*1F
$APDBT,8.5,f,2.6,M,1.4,F*0C
$PSMDCN,1*1A
$GPRMC,050622,A,3806.969,N,12137.455,W,0.0,247.1,151102,15.2,E*5E
$PSMDCN,1*1A
$GPZDA,050622,15,11,2002,07,00*48
$PSMDCN,4*1F
$APGLL,3806.9690,N,12137.4560,W,041601.00,A*18
$PSMDCN,1*1A
$GPDPT,2.6,-0.8*76
$PSMDCN,4*1F
$APXTE,A,A,0.000,L,N*58
$PSMDCN,1*1A
$GPGGA,050623,3806.969,N,12137.455,W,1,10,1.5,5,M,,M,,*5B
$PSMDCN,4*1F
$APRSA,0.4,A,,*3A
$PSMDCN,1*1A
$GPZDA,050623,15,11,2002,07,00*49
$PSMDCN,4*1F
$APDBT,8.5,f,2.6,M,1.4,F*0C
$PSMDCN,4*1F
$APGLL,3806.9690,N,12137.4560,W,041601.00,A*18
$PSMDCN,4*1F
$APVTG,247.1,T,231.9,M,0.1,N,0.1,K*41
$PSMDCN,1*1A
$GPAPB,A,A,0.000,L,N,V,V,128.0,M,1001,128.0,M,,M*25
$PSMDCN,4*1F
$APRSA,0.4,A,,*3A
$PSMDCN,1*1A
$GPDPT,2.6,-0.8*76
$PSMDCN,4*1F
$APDBT,8.5,f,2.6,M,1.4,F*0C
$PSMDCN,1*1A
$GPGGA,050624,3806.969,N,12137.455,W,1,10,1.5,5,M,,M,,*5C
$PSMDCN,1*1A
$GPRMC,050624,A,3806.969,N,12137.455,W,0.0,247.1,151102,15.2,E*58
$PSMDCN,4*1F
$APGLL,3806.9690,N,12137.4560,W,041601.00,A*18
$PSMDCN,1*1A
$GPZDA,050624,15,11,2002,07,00*4E
$PSMDCN,1*1A
$GPDPT,2.6,-0.8*76
$PSMDCN,1*1A
$GPGGA,050625,3806.969,N,12137.455,W,1,10,1.5,5,M,,M,,*5D
$PSMDCN,4*1F
$APRSA,0.4,A,,*3A
$PSMDCN,1*1A
$GPZDA,050625,15,11,2002,07,00*4F
$PSMDCN,4*1F
$APDBT,8.5,f,2.6,M,1.4,F*0C
$PSMDCN,4*1F
$APGLL,3806.9690,N,12137.4560,W,041601.00,A*18
$PSMDCN,4*1F
$APVTG,247.1,T,231.9,M,0.1,N,0.1,K*41
$PSMDCN,1*1A
$GPDPT,2.6,-0.8*76
$PSMDCN,1*1A
$GPGGA,050626,3806.969,N,12137.455,W,1,10,1.5,5,M,,M,,*5E
$PSMDCN,4*1F
$APRSA,0.4,A,,*3A
$PSMDCN,1*1A
$GPRMC,050626,A,3806.969,N,12137.455,W,0.0,247.1,151102,15.2,E*5A
$PSMDCN,4*1F
$APDBT,8.5,f,2.6,M,1.4,F*0C
$PSMDCN,1*1A
$GPZDA,050626,15,11,2002,07,00*4C
$PSMDCN,4*1F
$APGLL,3806.9690,N,12137.4560,W,041601.00,A*18
$PSMDCN,4*1F
$APVTG,247.1,T,231.9,M,0.1,N,0.1,K*41
$PSMDCN,1*1A
$GPDPT,2.6,-0.8*76
$PSMDCN,4*1F
$APXTE,A,A,0.000,L,N*58
$PSMDCN,1*1A
$GPGGA,050627,3806.969,N,12137.455,W,1,10,1.5,5,M,,M,,*5F
$PSMDCN,4*1F
$APRSA,0.4,A,,*3A
$PSMDCN,1*1A
$GPZDA,050627,15,11,2002,07,00*4D
$PSMDCN,4*1F
$APDBT,8.5,f,2.6,M,1.4,F*0C
$PSMDCN,4*1F
$APGLL,3806.9690,N,12137.4560,W,041601.00,A*18
$PSMDCN,4*1F
$APVTG,247.1,T,231.9,M,0.1,N,0.1,K*41
$PSMDCN,1*1A
$GPAPB,A,A,0.001,R,N,V,V,128.0,M,1001,128.0,M,,M*3A
$PSMDCN,1*1A
$GPDPT,2.6,-0.8*76
$PSMDCN,1*1A
$GPGGA,050628,3806.969,N,12137.455,W,1,10,1.5,5,M,,M,,*50
$PSMDCN,4*1F
$APRSA,0.4,A,,*3A
$PSMDCN,1*1A
$GPRMC,050628,A,3806.969,N,12137.455,W,0.0,247.1,151102,15.2,E*54
$PSMDCN,4*1F
$APDBT,8.5,f,2.6,M,1.4,F*0C
$PSMDCN,1*1A
$GPZDA,050628,15,11,2002,07,00*42
$PSMDCN,4*1F
$APVTG,247.1,T,231.9,M,0.1,N,0.1,K*41
$PSMDCN,1*1A
$GPDPT,2.6,-0.8*76
$PSMDCN,1*1A
$GPGGA,050629,3806.969,N,12137.455,W,1,10,1.5,5,M,,M,,*51
$PSMDCN,1*1A
$GPZDA,050629,15,11,2002,07,00*43
$PSMDCN,4*1F
$APRSA,0.4,A,,*3A
$PSMDCN,4*1F
$APDBT,8.5,f,2.6,M,1.4,F*0C
$PSMDCN,4*1F
$APGLL,3806.9690,N,12137.4560,W,041601.00,A*18
$PSMDCN,4*1F
$APVTG,247.1,T,231.9,M,0.1,N,0.1,K*41
$PSMDCN,1*1A
$GPDPT,2.6,-0.8*76
$PSMDCN,1*1A
$GPGGA,050630,3806.969,N,12137.455,W,1,10,1.5,5,M,,M,,*59
$PSMDCN,1*1A
$GPRMC,050630,A,3806.969,N,12137.455,W,0.0,247.1,151102,15.2,E*5D
$PSMDCN,4*1F
$APRSA,0.4,A,,*3A
$PSMDCN,1*1A
$GPZDA,050630,15,11,2002,07,00*4B
$PSMDCN,4*1F
$APDBT,8.5,f,2.6,M,1.4,F*0C
$PSMDCN,4*1F
$APGLL,3806.9690,N,12137.4560,W,041601.00,A*18
$PSMDCN,4*1F
$APVTG,247.1,T,231.9,M,0.1,N,0.1,K*41
$PSMDCN,1*1A
$GPDPT,2.6,-0.8*76
$PSMDCN,4*1F
$APXTE,A,A,0.000,L,N*58
$PSMDCN,1*1A
$GPGGA,050631,3806.969,N,12137.455,W,1,10,1.5,5,M,,M,,*58
$PSMDCN,1*1A
$GPZDA,050631,15,11,2002,07,00*4A
$PSMDCN,1*1A
$PFEC,GPint,ast01*13
$PSMDCN,4*1F
$APRSA,0.4,A,,*3A
$PSMDCN,1*1A
$PFEC,idfnc,R,*08
$PSMDCN,4*1F
$APDBT,8.5,f,2.6,M,1.4,F*0C
$PSMDCN,1*1A
$PFEC,idfnc,A,1*2A
$PSMDCN,4*1F
$APGLL,3806.9690,N,12137.4560,W,041601.00,A*18
$PSMDCN,4*1F
$APVTG,247.1,T,231.9,M,0.1,N,0.1,K*41
$PSMDCN,1*1A
$GPAPB,A,A,0.001,R,N,V,V,128.0,M,1001,128.0,M,,M*3A
$PSMDCN,1*1A
$GPDPT,2.6,-0.8*76
$PSMDCN,1*1A
$GPGGA,050632,3806.969,N,12137.455,W,1,10,1.5,5,M,,M,,*5B
$PSMDCN,1*1A
$GPRMC,050632,A,3806.969,N,12137.455,W,0.0,247.1,151102,15.2,E*5F
$PSMDCN,4*1F
$APRSA,0.4,A,,*3A
$PSMDCN,1*1A
$GPZDA,050632,15,11,2002,07,00*49
$PSMDCN,4*1F
$APDBT,8.5,f,2.6,M,1.4,F*0C
$PSMDCN,4*1F
$APGLL,3806.9690,N,12137.4560,W,041601.00,A*18
$PSMDCN,4*1F
$APVTG,247.1,T,231.9,M,0.1,N,0.1,K*41
$PSMDCN,1*1A
$GPDPT,2.6,-0.8*76
$PSMDCN,1*1A
$GPGGA,050633,3806.969,N,12137.455,W,1,10,1.5,5,M,,M,,*5A
$PSMDCN,1*1A
$GPZDA,050633,15,11,2002,07,00*48
$PSMDCN,4*1F
$APRSA,0.4,A,,*3A
$PSMDCN,4*1F
$APDBT,8.5,f,2.6,M,1.4,F*0C
$PSMDCN,4*1F
$APGLL,3806.9690,N,12137.4560,W,041601.00,A*18
$PSMDCN,1*1A
$GPDPT,2.6,-0.8*76
$PSMDCN,4*1F
$APVTG,247.1,T,231.9,M,0.1,N,0.1,K*41
$PSMDCN,1*1A
$GPGGA,050634,3806.969,N,12137.455,W,1,10,1.5,4,M,,M,,*5C
$PSMDCN,1*1A
$GPRMC,050634,A,3806.969,N,12137.455,W,0.0,247.1,151102,15.2,E*59
$PSMDCN,1*1A
$GPZDA,050634,15,11,2002,07,00*4F
$PSMDCN,4*1F
$APRSA,0.4,A,,*3A
$PSMDCN,4*1F
$APGLL,3806.9690,N,12137.4560,W,041601.00,A*18
$PSMDCN,1*1A
$GPDPT,2.6,-0.8*76
$PSMDCN,4*1F
$APVTG,247.1,T,231.9,M,0.1,N,0.1,K*41
$PSMDCN,1*1A
$GPGGA,050635,3806.969,N,12137.455,W,1,10,1.5,4,M,,M,,*5D
$PSMDCN,4*1F
$APXTE,A,A,0.000,L,N*58
$PSMDCN,1*1A
$GPZDA,050635,15,11,2002,07,00*4E
$PSMDCN,4*1F
$APRSA,0.4,A,,*3A
$PSMDCN,4*1F
$APDBT,8.5,f,2.6,M,1.4,F*0C
$PSMDCN,4*1F
$APGLL,3806.9690,N,12137.4560,W,041601.00,A*18
$PSMDCN,4*1F
$APVTG,247.1,T,231.9,M,0.1,N,0.1,K*41
$PSMDCN,1*1A
$GPAPB,A,A,0.001,R,N,V,V,128.0,M,1001,128.0,M,,M*3A
$PSMDCN,1*1A
$GPDPT,2.6,-0.8*76
$PSMDCN,1*1A
$GPGGA,050636,3806.969,N,12137.455,W,1,10,1.5,4,M,,M,,*5E
$PSMDCN,1*1A
$GPRMC,050636,A,3806.969,N,12137.455,W,0.0,247.1,151102,15.2,E*5B
$PSMDCN,4*1F
$APRSA,0.4,A,,*3A
$PSMDCN,4*1F
$APGLL,3806.9690,N,12137.4560,W,041601.00,A*18
$PSMDCN,1*1A
$GPDPT,2.6,-0.8*76
$PSMDCN,4*1F
$APVTG,247.1,T,231.9,M,0.1,N,0.1,K*41
$PSMDCN,1*1A
$GPGGA,050637,3806.969,N,12137.455,W,1,10,1.5,4,M,,M,,*5F
$PSMDCN,1*1A
$GPZDA,050637,15,11,2002,07,00*4C
$PSMDCN,4*1F
$APRSA,0.4,A,,*3A
$PSMDCN,4*1F
$APDBT,8.5,f,2.6,M,1.4,F*0C
$PSMDCN,1*1A
$GPDPT,2.6,-0.8*76
$PSMDCN,4*1F
$APGLL,3806.9690,N,12137.4560,W,041601.00,A*18
$PSMDCN,1*1A
$GPGGA,050638,3806.969,N,12137.455,W,1,10,1.5,4,M,,M,,*50
$PSMDCN,4*1F
$APVTG,247.1,T,231.9,M,0.1,N,0.1,K*41
$PSMDCN,1*1A
$GPRMC,050638,A,3806.969,N,12137.455,W,0.0,247.1,151102,15.2,E*55
$PSMDCN,1*1A
$GPZDA,050638,15,11,2002,07,00*43
$PSMDCN,4*1F
$APRSA,0.4,A,,*3A
$PSMDCN,1*1A
$GPDPT,2.6,-0.8*76
$PSMDCN,4*1F
$APGLL,3806.9690,N,12137.4560,W,041601.00,A*18
$PSMDCN,1*1A
$GPGGA,050639,3806.969,N,12137.455,W,1,10,1.5,4,M,,M,,*51
$PSMDCN,4*1F
$APVTG,247.1,T,231.9,M,0.1,N,0.1,K*41
$PSMDCN,1*1A
$GPZDA,050639,15,11,2002,07,00*42
$PSMDCN,4*1F
$APXTE,A,A,0.000,L,N*58
$PSMDCN,4*1F
$APRSA,0.4,A,,*3A
$PSMDCN,4*1F
$APDBT,8.5,f,2.6,M,1.4,F*0C
$PSMDCN,4*1F
$APGLL,3806.9690,N,12137.4560,W,041601.00,A*18
$PSMDCN,1*1A
$GPAPB,A,A,0.001,R,N,V,V,128.0,M,1001,128.0,M,,M*3A
$PSMDCN,4*1F
$APVTG,247.1,T,231.9,M,0.1,N,0.1,K*41
$PSMDCN,1*1A
$GPDPT,2.6,-0.8*76
$PSMDCN,1*1A
$GPGGA,050640,3806.969,N,12137.455,W,1,10,1.5,4,M,,M,,*5F
$PSMDCN,1*1A
$GPRMC,050640,A,3806.969,N,12137.455,W,0.0,247.1,151102,15.2,E*5A
$PSMDCN,4*1F
$APRSA,0.4,A,,*3A
$PSMDCN,1*1A
$GPZDA,050640,15,11,2002,07,00*4C
$PSMDCN,1*1A
$GPDPT,2.6,-0.8*76
$PSMDCN,4*1F
$APGLL,3806.9690,N,12137.4560,W,041601.00,A*18
$PSMDCN,1*1A
$GPGGA,050641,3806.969,N,12137.455,W,1,10,1.5,4,M,,M,,*5E
$PSMDCN,4*1F
$APVTG,247.1,T,231.9,M,0.1,N,0.1,K*41
$PSMDCN,1*1A
$GPZDA,050641,15,11,2002,07,00*4D
$PSMDCN,1*1A
$PFEC,GPint,ast01*13
$PSMDCN,1*1A
$PFEC,idfnc,R,*08
$PSMDCN,1*1A
$PFEC,idfnc,A,1*2A
$PSMDCN,4*1F
$APRSA,0.4,A,,*3A
$PSMDCN,4*1F
$APDBT,8.5,f,2.6,M,1.4,F*0C
$PSMDCN,1*1A
$GPDPT,2.6,-0.8*76
$PSMDCN,1*1A
$GPGGA,050642,3806.969,N,12137.455,W,1,10,1.5,4,M,,M,,*5D
$PSMDCN,4*1F
$APGLL,3806.9690,N,12137.4560,W,041601.00,A*18
$PSMDCN,1*1A
$GPRMC,050642,A,3806.969,N,12137.455,W,0.0,247.1,151102,15.2,E*58
$PSMDCN,4*1F
$APVTG,247.1,T,231.9,M,0.1,N,0.1,K*41
$PSMDCN,1*1A
$GPZDA,050642,15,11,2002,07,00*4E
$PSMDCN,4*1F
$APRSA,0.4,A,,*3A
$PSMDCN,4*1F
$APDBT,8.5,f,2.6,M,1.4,F*0C
$PSMDCN,1*1A
$GPDPT,2.6,-0.8*76
$PSMDCN,1*1A
$GPGGA,050643,3806.969,N,12137.455,W,1,10,1.5,4,M,,M,,*5C
$PSMDCN,4*1F
$APGLL,3806.9690,N,12137.4560,W,041601.00,A*18
$PSMDCN,1*1A
$GPZDA,050643,15,11,2002,07,00*4F
$PSMDCN,4*1F
$APVTG,247.1,T,231.9,M,0.1,N,0.1,K*41
$PSMDCN,4*1F
$APXTE,A,A,0.000,L,N*58
$PSMDCN,4*1F
$APRSA,0.4,A,,*3A
$PSMDCN,4*1F
$APDBT,8.5,f,2.6,M,1.4,F*0C
$PSMDCN,1*1A
$GPAPB,A,A,0.001,R,N,V,V,128.0,M,1001,128.0,M,,M*3A
$PSMDCN,1*1A
$GPDPT,2.6,-0.8*76
$PSMDCN,4*1F
$APGLL,3806.9690,N,12137.4560,W,041601.00,A*18
$PSMDCN,1*1A
$GPGGA,050644,3806.969,N,12137.455,W,1,10,1.5,4,M,,M,,*5B
$PSMDCN,4*1F
$APVTG,247.1,T,231.9,M,0.1,N,0.1,K*41
$PSMDCN,1*1A
$GPRMC,050644,A,3806.969,N,12137.455,W,0.0,247.1,151102,15.2,E*5E
$PSMDCN,1*1A
$GPZDA,050644,15,11,2002,07,00*48
$PSMDCN,4*1F
$APRSA,0.4,A,,*3A
$PSMDCN,1*1A
$GPDPT,2.6,-0.8*76
$PSMDCN,1*1A
$GPGGA,050645,3806.969,N,12137.455,W,1,10,1.5,4,M,,M,,*5A
$PSMDCN,4*1F
$APGLL,3806.9690,N,12137.4560,W,041601.00,A*18
$PSMDCN,1*1A
$GPZDA,050645,15,11,2002,07,00*49
$PSMDCN,4*1F
$APVTG,247.1,T,231.9,M,0.1,N,0.1,K*41
$PSMDCN,4*1F
$APRSA,0.4,A,,*3A
$PSMDCN,4*1F
$APDBT,8.5,f,2.6,M,1.4,F*0C
$PSMDCN,1*1A
$GPDPT,2.6,-0.8*76
$PSMDCN,1*1A
$GPGGA,050646,3806.969,N,12137.455,W,1,10,1.5,4,M,,M,,*59
$PSMDCN,4*1F
$APGLL,3806.9690,N,12137.4560,W,041601.00,A*18
$PSMDCN,1*1A
$GPRMC,050646,A,3806.969,N,12137.455,W,0.1,247.1,151102,15.2,E*5D
$PSMDCN,4*1F
$APVTG,247.1,T,231.9,M,0.1,N,0.1,K*41
$PSMDCN,1*1A
$GPZDA,050646,15,11,2002,07,00*4A
$PSMDCN,4*1F
$APRSA,0.4,A,,*3A
$PSMDCN,4*1F
$APDBT,8.5,f,2.6,M,1.4,F*0C
$PSMDCN,1*1A
$GPDPT,2.6,-0.8*76
$PSMDCN,1*1A
$GPGGA,050647,3806.969,N,12137.455,W,1,10,1.5,4,M,,M,,*58
$PSMDCN,1*1A
$GPZDA,050647,15,11,2002,07,00*4B
$PSMDCN,4*1F
$APGLL,3806.9690,N,12137.4560,W,041601.00,A*18
$PSMDCN,4*1F
$APXTE,A,A,0.000,L,N*58
$PSMDCN,4*1F
$APVTG,247.1,T,231.9,M,0.1,N,0.1,K*41
$PSMDCN,4*1F
$APRSA,0.4,A,,*3A
$PSMDCN,4*1F
$APDBT,8.5,f,2.6,M,1.4,F*0C
$PSMDCN,1*1A
$GPAPB,A,A,0.001,R,N,V,V,128.0,M,1001,128.0,M,,M*3A
$PSMDCN,1*1A
$GPDPT,2.6,-0.8*76
$PSMDCN,1*1A
$GPGGA,050648,3806.969,N,12137.455,W,1,10,1.5,3,M,,M,,*50
$PSMDCN,4*1F
$APGLL,3806.9690,N,12137.4560,W,041601.00,A*18
$PSMDCN,1*1A
$GPRMC,050648,A,3806.969,N,12137.455,W,0.0,247.1,151102,15.2,E*52
$PSMDCN,4*1F
$APVTG,247.1,T,231.9,M,0.1,N,0.1,K*41
$PSMDCN,1*1A
$GPZDA,050648,15,11,2002,07,00*44
$PSMDCN,4*1F
$APRSA,0.4,A,,*3A
$PSMDCN,4*1F
$APDBT,8.5,f,2.6,M,1.4,F*0C
$PSMDCN,1*1A
$GPDPT,2.6,-0.8*76
$PSMDCN,1*1A
$GPGGA,050649,3806.969,N,12137.455,W,1,10,1.5,3,M,,M,,*51
$PSMDCN,1*1A
$GPZDA,050649,15,11,2002,07,00*45
$PSMDCN,4*1F
$APGLL,3806.9690,N,12137.4560,W,041601.00,A*18
$PSMDCN,4*1F
$APVTG,247.1,T,231.9,M,0.1,N,0.1,K*41
$PSMDCN,4*1F
$APRSA,0.4,A,,*3A
$PSMDCN,1*1A
$GPDPT,2.6,-0.8*76
$PSMDCN,4*1F
$APDBT,8.5,f,2.6,M,1.4,F*0C
$PSMDCN,1*1A
$GPGGA,050650,3806.969,N,12137.455,W,1,10,1.5,3,M,,M,,*59
$PSMDCN,1*1A
$GPRMC,050650,A,3806.969,N,12137.455,W,0.1,247.1,151102,15.2,E*5A
$PSMDCN,4*1F
$APGLL,3806.9690,N,12137.4560,W,041601.00,A*18
$PSMDCN,1*1A
$GPZDA,050650,15,11,2002,07,00*4D
$PSMDCN,4*1F
$APVTG,247.1,T,231.9,M,0.1,N,0.1,K*41
$PSMDCN,4*1F
$APRSA,0.4,A,,*3A
$PSMDCN,1*1A
$GPDPT,2.6,-0.8*76
$PSMDCN,4*1F
$APDBT,8.5,f,2.6,M,1.4,F*0C
$PSMDCN,1*1A
$GPGGA,050651,3806.969,N,12137.455,W,1,10,1.5,3,M,,M,,*58
$PSMDCN,1*1A
$GPZDA,050651,15,11,2002,07,00*4C
$PSMDCN,1*1A
$PFEC,GPint,ast01*13
$PSMDCN,1*1A
$PFEC,idfnc,R,*08
$PSMDCN,1*1A
$PFEC,idfnc,A,1*2A
$PSMDCN,4*1F
$APVTG,247.1,T,231.9,M,0.1,N,0.1,K*41
$PSMDCN,4*1F
$APRSA,0.4,A,,*3A
$PSMDCN,4*1F
$APDBT,8.5,f,2.6,M,1.4,F*0C
$PSMDCN,1*1A
$GPAPB,A,A,0.001,R,N,V,V,128.0,M,1001,128.0,M,,M*3A
$PSMDCN,1*1A
$GPDPT,2.6,-0.8*76
$PSMDCN,1*1A
$GPGGA,050652,3806.969,N,12137.455,W,1,10,1.5,3,M,,M,,*5B
$PSMDCN,1*1A
$GPRMC,050652,A,3806.969,N,12137.455,W,0.1,247.1,151102,15.2,E*58
$PSMDCN,4*1F
$APGLL,3806.9690,N,12137.4560,W,041601.00,A*18
$PSMDCN,1*1A
$GPZDA,050652,15,11,2002,07,00*4F
$PSMDCN,4*1F
$APVTG,247.1,T,231.9,M,0.1,N,0.1,K*41
$PSMDCN,1*1A
$GPDPT,2.6,-0.8*76
$PSMDCN,4*1F
$APRSA,0.4,A,,*3A
$PSMDCN,4*1F
$APDBT,8.5,f,2.6,M,1.4,F*0C
$PSMDCN,1*1A
$GPGGA,050653,3806.969,N,12137.455,W,1,10,1.5,3,M,,M,,*5A
$PSMDCN,1*1A
$GPZDA,050653,15,11,2002,07,00*4E
$PSMDCN,4*1F
$APGLL,3806.9690,N,12137.4560,W,041601.00,A*18
$PSMDCN,4*1F
$APVTG,247.1,T,231.9,M,0.1,N,0.1,K*41
$PSMDCN,1*1A
$GPDPT,2.6,-0.8*76
$PSMDCN,4*1F
$APRSA,0.4,A,,*3A
$PSMDCN,1*1A
$GPGGA,050654,3806.969,N,12137.455,W,1,10,1.5,3,M,,M,,*5D
$PSMDCN,4*1F
$APDBT,8.5,f,2.6,M,1.4,F*0C
$PSMDCN,1*1A
$GPRMC,050654,A,3806.969,N,12137.455,W,0.0,247.1,151102,15.2,E*5F
$PSMDCN,1*1A
$GPZDA,050654,15,11,2002,07,00*49
$PSMDCN,4*1F
$APGLL,3806.9690,N,12137.4560,W,041601.00,A*18
$PSMDCN,1*1A
$GPDPT,2.6,-0.8*76
$PSMDCN,4*1F
$APRSA,0.4,A,,*3A
$PSMDCN,1*1A
$GPGGA,050655,3806.969,N,12137.455,W,1,10,1.5,3,M,,M,,*5C
$PSMDCN,4*1F
$APDBT,8.5,f,2.6,M,1.4,F*0C
$PSMDCN,1*1A
$GPZDA,050655,15,11,2002,07,00*48
$PSMDCN,4*1F
$APXTE,A,A,0.000,L,N*58
$PSMDCN,4*1F
$APGLL,3806.9690,N,12137.4560,W,041601.00,A*18
$PSMDCN,4*1F
$APVTG,247.1,T,231.9,M,0.1,N,0.1,K*41
$PSMDCN,1*1A
$GPAPB,A,A,0.001,R,N,V,V,128.0,M,1001,128.0,M,,M*3A
$PSMDCN,4*1F
$APRSA,0.4,A,,*3A
$PSMDCN,1*1A
$GPDPT,2.6,-0.8*76
$PSMDCN,4*1F
$APDBT,8.5,f,2.6,M,1.4,F*0C
$PSMDCN,1*1A
$GPGGA,050656,3806.969,N,12137.455,W,1,10,1.5,3,M,,M,,*5F
$PSMDCN,1*1A
$GPRMC,050656,A,3806.969,N,12137.455,W,0.0,247.1,151102,15.2,E*5D
$PSMDCN,1*1A
$GPZDA,050656,15,11,2002,07,00*4B
$PSMDCN,4*1F
$APVTG,247.1,T,231.9,M,0.1,N,0.1,K*41
$PSMDCN,1*1A
$GPDPT,2.6,-0.8*76
$PSMDCN,1*1A
$GPGGA,050657,3806.969,N,12137.455,W,1,10,1.5,3,M,,M,,*5E
$PSMDCN,4*1F
$APRSA,0.4,A,,*3A
$PSMDCN,1*1A
$GPZDA,050657,15,11,2002,07,00*4A
$PSMDCN,4*1F
$APDBT,8.5,f,2.6,M,1.4,F*0C
$PSMDCN,4*1F
$APGLL,3806.9690,N,12137.4560,W,041601.00,A*18
$PSMDCN,4*1F
$APVTG,247.1,T,231.9,M,0.1,N,0.1,K*41
$PSMDCN,1*1A
$GPDPT,2.6,-0.8*76
$PSMDCN,1*1A
$GPGGA,050658,3806.969,N,12137.455,W,1,10,1.5,3,M,,M,,*51
$PSMDCN,4*1F
$APRSA,0.4,A,,*3A
$PSMDCN,1*1A
$GPRMC,050658,A,3806.969,N,12137.455,W,0.0,247.1,151102,15.2,E*53
$PSMDCN,4*1F
$APDBT,8.5,f,2.6,M,1.4,F*0C
$PSMDCN,1*1A
$GPZDA,050658,15,11,2002,07,00*45
$PSMDCN,4*1F
$APGLL,3806.9690,N,12137.4560,W,041601.00,A*18
$PSMDCN,4*1F
$APVTG,247.1,T,231.9,M,0.1,N,0.1,K*41
$PSMDCN,1*1A
$GPDPT,2.6,-0.8*76
$PSMDCN,1*1A
$GPGGA,050659,3806.970,N,12137.455,W,1,10,1.5,3,M,,M,,*58
$PSMDCN,4*1F
$APRSA,0.4,A,,*3A
$PSMDCN,1*1A
$GPZDA,050659,15,11,2002,07,00*44
$PSMDCN,4*1F
$APDBT,8.5,f,2.6,M,1.4,F*0C
$PSMDCN,4*1F
$APXTE,A,A,0.000,L,N*58
$PSMDCN,4*1F
$APGLL,3806.9690,N,12137.4560,W,041601.00,A*18
$PSMDCN,4*1F
$APVTG,247.1,T,231.9,M,0.1,N,0.1,K*41
$PSMDCN,1*1A
$GPAPB,A,A,0.001,R,N,V,V,128.0,M,1001,128.0,M,,M*3A
$PSMDCN,1*1A
$GPDPT,2.6,-0.8*76
$PSMDCN,1*1A
$GPGGA,050700,3806.970,N,12137.455,W,1,10,1.5,3,M,,M,,*55
$PSMDCN,4*1F
$APRSA,0.4,A,,*3A
$PSMDCN,1*1A
$GPRMC,050700,A,3806.970,N,12137.455,W,0.0,247.1,151102,15.2,E*57
$PSMDCN,4*1F
$APDBT,8.5,f,2.6,M,1.4,F*0C
$PSMDCN,1*1A
$GPZDA,050700,15,11,2002,07,00*49
$PSMDCN,4*1F
$APVTG,247.1,T,231.9,M,0.1,N,0.1,K*41
$PSMDCN,1*1A
$GPDPT,2.6,-0.8*76
$PSMDCN,1*1A
$GPGGA,050701,3806.970,N,12137.455,W,1,10,1.5,3,M,,M,,*54
$PSMDCN,1*1A
$GPZDA,050701,15,11,2002,07,00*48
$PSMDCN,4*1F
$APRSA,0.4,A,,*3A
$PSMDCN,1*1A
$PFEC,GPint,ast01*13
$PSMDCN,4*1F
$APDBT,8.5,f,2.6,M,1.4,F*0C
$PSMDCN,1*1A
$PFEC,idfnc,R,*08
$PSMDCN,1*1A
$PFEC,idfnc,A,1*2A
$PSMDCN,4*1F
$APGLL,3806.9690,N,12137.4560,W,041601.00,A*18
$PSMDCN,4*1F
$APVTG,247.1,T,231.9,M,0.1,N,0.1,K*41
$PSMDCN,1*1A
$GPDPT,2.6,-0.8*76
$PSMDCN,1*1A
$GPGGA,050702,3806.970,N,12137.455,W,1,10,1.5,3,M,,M,,*57
$PSMDCN,1*1A
$GPRMC,050702,A,3806.970,N,12137.455,W,0.0,247.1,151102,15.2,E*55
$PSMDCN,4*1F
$APRSA,0.4,A,,*3A
$PSMDCN,1*1A
$GPZDA,050702,15,11,2002,07,00*4B
$PSMDCN,4*1F
$APDBT,8.5,f,2.6,M,1.4,F*0C
$PSMDCN,4*1F
$APGLL,3806.9690,N,12137.4560,W,041601.00,A*18
$PSMDCN,4*1F
$APVTG,247.1,T,231.9,M,0.1,N,0.1,K*41
$PSMDCN,1*1A
$GPDPT,2.6,-0.8*76
$PSMDCN,1*1A
$GPGGA,050703,3806.970,N,12137.455,W,1,10,1.5,3,M,,M,,*56
$PSMDCN,1*1A
$GPZDA,050703,15,11,2002,07,00*4A
$PSMDCN,4*1F
$APXTE,A,A,0.000,L,N*58
$PSMDCN,4*1F
$APRSA,0.4,A,,*3A
$PSMDCN,4*1F
$APDBT,8.5,f,2.6,M,1.4,F*0C
$PSMDCN,4*1F
$APGLL,3806.9690,N,12137.4560,W,041601.00,A*18
$PSMDCN,4*1F
$APVTG,247.1,T,231.9,M,0.1,N,0.1,K*41
$PSMDCN,1*1A
$GPAPB,A,A,0.001,R,N,V,V,128.0,M,1001,128.0,M,,M*3A
$PSMDCN,1*1A
$GPDPT,2.6,-0.8*76
$PSMDCN,1*1A
$GPGGA,050704,3806.970,N,12137.455,W,1,10,1.5,3,M,,M,,*51
$PSMDCN,4*1F
$APRSA,0.4,A,,*3A
$PSMDCN,1*1A
$GPRMC,050704,A,3806.970,N,12137.455,W,0.0,247.1,151102,15.2,E*53
$PSMDCN,4*1F
$APDBT,8.5,f,2.6,M,1.4,F*0C
$PSMDCN,1*1A
$GPZDA,050704,15,11,2002,07,00*4D
$PSMDCN,4*1F
$APGLL,3806.9690,N,12137.4560,W,041601.00,A*18
$PSMDCN,4*1F
$APVTG,247.1,T,231.9,M,0.1,N,0.1,K*41
$PSMDCN,1*1A
$GPDPT,2.6,-0.8*76
$PSMDCN,1*1A
$GPGGA,050705,3806.970,N,12137.455,W,1,10,1.5,3,M,,M,,*50
$PSMDCN,1*1A
$GPZDA,050705,15,11,2002,07,00*4C
$PSMDCN,4*1F
$APRSA,0.4,A,,*3A
$PSMDCN,4*1F
$APDBT,8.5,f,2.6,M,1.4,F*0C
$PSMDCN,4*1F
$APGLL,3806.9690,N,12137.4560,W,041601.00,A*18
$PSMDCN,1*1A
$GPDPT,2.6,-0.8*76
$PSMDCN,4*1F
$APVTG,247.1,T,231.9,M,0.1,N,0.1,K*41
$PSMDCN,1*1A
$GPGGA,050706,3806.970,N,12137.455,W,1,10,1.5,3,M,,M,,*53
$PSMDCN,1*1A
$GPRMC,050706,A,3806.970,N,12137.455,W,0.0,247.1,151102,15.2,E*51
$PSMDCN,4*1F
$APRSA,0.4,A,,*3A
$PSMDCN,1*1A
$GPZDA,050706,15,11,2002,07,00*4F
$PSMDCN,4*1F
$APGLL,3806.9690,N,12137.4560,W,041601.00,A*18
$PSMDCN,4*1F
$APVTG,247.1,T,231.9,M,0.1,N,0.1,K*41
$PSMDCN,1*1A
$GPDPT,2.6,-0.8*76
$PSMDCN,1*1A
$GPGGA,050707,3806.970,N,12137.455,W,1,10,1.5,3,M,,M,,*52
$PSMDCN,1*1A
$GPZDA,050707,15,11,2002,07,00*4E
$PSMDCN,4*1F
$APXTE,A,A,0.000,L,N*58
$PSMDCN,4*1F
$APRSA,0.4,A,,*3A
$PSMDCN,4*1F
$APDBT,8.5,f,2.6,M,1.4,F*0C
$PSMDCN,4*1F
$APGLL,3806.9690,N,12137.4560,W,041601.00,A*18
$PSMDCN,4*1F
$APVTG,247.1,T,231.9,M,0.1,N,0.1,K*41
$PSMDCN,1*1A
$GPAPB,A,A,0.001,R,N,V,V,128.0,M,1001,128.0,M,,M*3A
$PSMDCN,1*1A
$GPDPT,2.6,-0.8*76
$PSMDCN,1*1A
$GPGGA,050708,3806.970,N,12137.455,W,1,10,1.5,3,M,,M,,*5D
$PSMDCN,1*1A
$GPRMC,050708,A,3806.970,N,12137.455,W,0.0,247.1,151102,15.2,E*5F
$PSMDCN,4*1F
$APRSA,0.4,A,,*3A
$PSMDCN,4*1F
$APGLL,3806.9690,N,12137.4560,W,041601.00,A*18
$PSMDCN,1*1A
$GPDPT,2.6,-0.8*76
$PSMDCN,4*1F
$APVTG,247.1,T,231.9,M,0.1,N,0.1,K*41
$PSMDCN,1*1A
$GPGGA,050709,3806.970,N,12137.455,W,1,10,1.5,3,M,,M,,*5C
$PSMDCN,1*1A
$GPZDA,050709,15,11,2002,07,00*40
$PSMDCN,4*1F
$APRSA,0.4,A,,*3A
$PSMDCN,4*1F
$APDBT,8.5,f,2.6,M,1.4,F*0C
$PSMDCN,4*1F
$APGLL,3806.9690,N,12137.4560,W,041601.00,A*18
$PSMDCN,1*1A
$GPDPT,2.6,-0.8*76
$PSMDCN,4*1F
$APVTG,247.1,T,231.9,M,0.1,N,0.1,K*41
$PSMDCN,1*1A
$GPGGA,050710,3806.970,N,12137.455,W,1,10,1.5,3,M,,M,,*54
$PSMDCN,1*1A
$GPRMC,050710,A,3806.970,N,12137.455,W,0.0,247.1,151102,15.2,E*56
$PSMDCN,1*1A
$GPZDA,050710,15,11,2002,07,00*48
$PSMDCN,4*1F
$APRSA,0.4,A,,*3A
$PSMDCN,4*1F
$APGLL,3806.9690,N,12137.4560,W,041601.00,A*18
$PSMDCN,1*1A
$GPDPT,2.6,-0.8*76
$PSMDCN,4*1F
$APVTG,247.1,T,231.9,M,0.1,N,0.1,K*41
$PSMDCN,1*1A
$GPGGA,050711,3806.970,N,12137.455,W,1,10,1.5,3,M,,M,,*55
$PSMDCN,4*1F
$APXTE,A,A,0.000,L,N*58
$PSMDCN,1*1A
$GPZDA,050711,15,11,2002,07,00*49
$PSMDCN,1*1A
$PFEC,GPint,ast01*13
$PSMDCN,1*1A
$PFEC,idfnc,R,*08
$PSMDCN,1*1A
$PFEC,idfnc,A,1*2A
$PSMDCN,4*1F
$APGLL,3806.9690,N,12137.4560,W,041601.00,A*18
$PSMDCN,1*1A
$GPAPB,A,A,0.001,R,N,V,V,128.0,M,1001,128.0,M,,M*3A
$PSMDCN,4*1F
$APVTG,247.1,T,231.9,M,0.1,N,0.1,K*41
$PSMDCN,1*1A
$GPDPT,2.6,-0.8*76
$PSMDCN,1*1A
$GPGGA,050712,3806.970,N,12137.455,W,1,10,1.5,3,M,,M,,*56
$PSMDCN,1*1A
$GPRMC,050712,A,3806.970,N,12137.455,W,0.0,247.1,151102,15.2,E*54
$PSMDCN,4*1F
$APRSA,0.4,A,,*3A
$PSMDCN,1*1A
$GPZDA,050712,15,11,2002,07,00*4A
$PSMDCN,1*1A
$GPDPT,2.6,-0.8*76
$PSMDCN,4*1F
$APGLL,3806.9690,N,12137.4560,W,041601.00,A*18
$PSMDCN,1*1A
$GPGGA,050713,3806.970,N,12137.455,W,1,10,1.5,3,M,,M,,*57
$PSMDCN,4*1F
$APVTG,247.1,T,231.9,M,0.1,N,0.1,K*41
$PSMDCN,1*1A
$GPZDA,050713,15,11,2002,07,00*4B
$PSMDCN,4*1F
$APRSA,0.4,A,,*3A
$PSMDCN,4*1F
$APDBT,8.5,f,2.6,M,1.4,F*0C
$PSMDCN,1*1A
$GPDPT,2.6,-0.8*76
$PSMDCN,4*1F
$APGLL,3806.9690,N,12137.4560,W,041601.00,A*18
$PSMDCN,1*1A
$GPGGA,050714,3806.970,N,12137.455,W,1,10,1.5,3,M,,M,,*50
$PSMDCN,4*1F
$APVTG,247.1,T,231.9,M,0.1,N,0.1,K*41
$PSMDCN,1*1A
$GPRMC,050714,A,3806.970,N,12137.455,W,0.1,247.1,151102,15.2,E*53
$PSMDCN,1*1A
$GPZDA,050714,15,11,2002,07,00*4C
$PSMDCN,4*1F
$APRSA,0.4,A,,*3A
$PSMDCN,4*1F
$APDBT,8.5,f,2.6,M,1.4,F*0C
$PSMDCN,1*1A
$GPDPT,2.6,-0.8*76
$PSMDCN,4*1F
$APGLL,3806.9690,N,12137.4560,W,041601.00,A*18
$PSMDCN,1*1A
$GPGGA,050715,3806.970,N,12137.455,W,1,10,1.5,3,M,,M,,*51
$PSMDCN,4*1F
$APVTG,247.1,T,231.9,M,0.1,N,0.1,K*41
$PSMDCN,1*1A
$GPZDA,050715,15,11,2002,07,00*4D
$PSMDCN,4*1F
$APXTE,A,A,0.000,L,N*58
$PSMDCN,4*1F
$APRSA,0.4,A,,*3A
$PSMDCN,4*1F
$APDBT,8.5,f,2.6,M,1.4,F*0C
$PSMDCN,1*1A
$GPAPB,A,A,0.001,R,N,V,V,128.0,M,1001,128.0,M,,M*3A
$PSMDCN,4*1F
$APGLL,3806.9690,N,12137.4560,W,041601.00,A*18
$PSMDCN,1*1A
$GPDPT,2.6,-0.8*76
$PSMDCN,4*1F
$APVTG,247.1,T,231.9,M,0.1,N,0.1,K*41
$PSMDCN,1*1A
$GPGGA,050716,3806.970,N,12137.455,W,1,10,1.5,3,M,,M,,*52
$PSMDCN,1*1A
$GPRMC,050716,A,3806.970,N,12137.455,W,0.1,247.1,151102,15.2,E*51
$PSMDCN,1*1A
$GPZDA,050716,15,11,2002,07,00*4E
$PSMDCN,4*1F
$APDBT,8.5,f,2.6,M,1.4,F*0C
$PSMDCN,1*1A
$GPDPT,2.6,-0.8*76
$PSMDCN,1*1A
$GPGGA,050717,3806.970,N,12137.455,W,1,10,1.5,3,M,,M,,*53
$PSMDCN,4*1F
$APGLL,3806.9690,N,12137.4560,W,041601.00,A*18
$PSMDCN,1*1A
$GPZDA,050717,15,11,2002,07,00*4F
$PSMDCN,4*1F
$APVTG,247.1,T,231.9,M,0.1,N,0.1,K*41
$PSMDCN,4*1F
$APRSA,0.4,A,,*3A
$PSMDCN,4*1F
$APDBT,8.5,f,2.6,M,1.4,F*0C
$PSMDCN,1*1A
$GPDPT,2.6,-0.8*76
$PSMDCN,1*1A
$GPGGA,050718,3806.970,N,12137.455,W,1,10,1.5,3,M,,M,,*5C
$PSMDCN,4*1F
$APGLL,3806.9690,N,12137.4560,W,041601.00,A*18
$PSMDCN,1*1A
$GPRMC,050718,A,3806.970,N,12137.455,W,0.1,247.1,151102,15.2,E*5F
$PSMDCN,4*1F
$APVTG,247.1,T,231.9,M,0.1,N,0.1,K*41
$PSMDCN,1*1A
$GPZDA,050718,15,11,2002,07,00*40
$PSMDCN,4*1F
$APRSA,0.4,A,,*3A
$PSMDCN,4*1F
$APDBT,8.5,f,2.6,M,1.4,F*0C
$PSMDCN,1*1A
$GPDPT,2.6,-0.8*76
$PSMDCN,1*1A
$GPGGA,050719,3806.970,N,12137.455,W,1,10,1.5,3,M,,M,,*5D
$PSMDCN,4*1F
$APGLL,3806.9690,N,12137.4560,W,041601.00,A*18
$PSMDCN,1*1A
$GPZDA,050719,15,11,2002,07,00*41
$PSMDCN,4*1F
$APVTG,247.1,T,231.9,M,0.1,N,0.1,K*41
$PSMDCN,4*1F
$APXTE,A,A,0.000,L,N*58
$PSMDCN,4*1F
$APRSA,0.4,A,,*3A
$PSMDCN,4*1F
$APDBT,8.5,f,2.6,M,1.4,F*0C
$PSMDCN,1*1A
$GPAPB,A,A,0.001,R,N,V,V,128.0,M,1001,128.0,M,,M*3A
$PSMDCN,1*1A
$GPDPT,2.6,-0.8*76
$PSMDCN,1*1A
$GPGGA,050720,3806.970,N,12137.455,W,1,10,1.5,3,M,,M,,*57
$PSMDCN,4*1F
$APGLL,3806.9690,N,12137.4560,W,041601.00,A*18
$PSMDCN,1*1A
$GPRMC,050720,A,3806.970,N,12137.455,W,0.0,247.1,151102,15.2,E*55
$PSMDCN,4*1F
$APVTG,247.1,T,231.9,M,0.1,N,0.1,K*41
$PSMDCN,1*1A
$GPZDA,050720,15,11,2002,07,00*4B
$PSMDCN,4*1F
$APRSA,0.4,A,,*3A
$PSMDCN,4*1F
$APDBT,8.5,f,2.6,M,1.4,F*0C
$PSMDCN,1*1A
$GPDPT,2.6,-0.8*76
$PSMDCN,1*1A
$GPGGA,050721,3806.970,N,12137.455,W,1,10,1.5,3,M,,M,,*56
$PSMDCN,1*1A
$GPZDA,050721,15,11,2002,07,00*4A
$PSMDCN,4*1F
$APGLL,3806.9690,N,12137.4560,W,041601.00,A*18
$PSMDCN,1*1A
$PFEC,GPint,ast01*13
$PSMDCN,4*1F
$APVTG,247.1,T,231.9,M,0.1,N,0.1,K*41
$PSMDCN,1*1A
$PFEC,idfnc,R,*08
$PSMDCN,1*1A
$PFEC,idfnc,A,1*2A
$PSMDCN,4*1F
$APRSA,0.4,A,,*3A
$PSMDCN,4*1F
$APDBT,8.5,f,2.6,M,1.4,F*0C
$PSMDCN,1*1A
$GPDPT,2.6,-0.8*76
$PSMDCN,1*1A
$GPGGA,050722,3806.970,N,12137.455,W,1,10,1.5,3,M,,M,,*55
$PSMDCN,1*1A
$GPRMC,050722,A,3806.970,N,12137.455,W,0.0,247.1,151102,15.2,E*57
$PSMDCN,4*1F
$APGLL,3806.9690,N,12137.4560,W,041601.00,A*18
$PSMDCN,1*1A
$GPZDA,050722,15,11,2002,07,00*49
$PSMDCN,4*1F
$APVTG,247.1,T,231.9,M,0.1,N,0.1,K*41
$PSMDCN,4*1F
$APRSA,0.4,A,,*3A
$PSMDCN,4*1F
$APDBT,8.5,f,2.6,M,1.4,F*0C
$PSMDCN,1*1A
$GPDPT,2.6,-0.8*76
$PSMDCN,1*1A
$GPGGA,050723,3806.970,N,12137.455,W,1,10,1.5,3,M,,M,,*54
$PSMDCN,1*1A
$GPZDA,050723,15,11,2002,07,00*48
$PSMDCN,4*1F
$APGLL,3806.9690,N,12137.4560,W,041601.00,A*18
$PSMDCN,4*1F
$APVTG,247.1,T,231.9,M,0.1,N,0.1,K*41
$PSMDCN,4*1F
$APXTE,A,A,0.000,L,N*58
$PSMDCN,4*1F
$APRSA,0.4,A,,*3A
$PSMDCN,4*1F
$APDBT,8.5,f,2.6,M,1.4,F*0C
$PSMDCN,1*1A
$GPAPB,A,A,0.001,R,N,V,V,128.0,M,1001,128.0,M,,M*3A
$PSMDCN,1*1A
$GPDPT,2.6,-0.8*76
$PSMDCN,1*1A
$GPGGA,050724,3806.970,N,12137.455,W,1,10,1.5,3,M,,M,,*53
$PSMDCN,1*1A
$GPRMC,050724,A,3806.970,N,12137.455,W,0.1,247.1,151102,15.2,E*50
$PSMDCN,4*1F
$APGLL,3806.9690,N,12137.4560,W,041601.00,A*18
$PSMDCN,1*1A
$GPZDA,050724,15,11,2002,07,00*4F
$PSMDCN,4*1F
$APVTG,247.1,T,231.9,M,0.1,N,0.1,K*41
$PSMDCN,4*1F
$APRSA,0.4,A,,*3A
$PSMDCN,1*1A
$GPDPT,2.6,-0.8*76
$PSMDCN,4*1F
$APDBT,8.5,f,2.6,M,1.4,F*0C
$PSMDCN,1*1A
$GPGGA,050725,3806.970,N,12137.455,W,1,10,1.5,3,M,,M,,*52
$PSMDCN,1*1A
$GPZDA,050725,15,11,2002,07,00*4E
$PSMDCN,4*1F
$APGLL,3806.9690,N,12137.4560,W,041601.00,A*18
$PSMDCN,4*1F
$APVTG,247.1,T,231.9,M,0.1,N,0.1,K*41
$PSMDCN,1*1A
$GPDPT,2.6,-0.8*76
$PSMDCN,4*1F
$APRSA,0.4,A,,*3A
$PSMDCN,4*1F
$APDBT,8.5,f,2.6,M,1.4,F*0C
$PSMDCN,1*1A
$GPGGA,050726,3806.970,N,12137.455,W,1,10,1.5,3,M,,M,,*51
$PSMDCN,1*1A
$GPRMC,050726,A,3806.970,N,12137.455,W,0.0,247.1,151102,15.2,E*53
$PSMDCN,1*1A
$GPZDA,050726,15,11,2002,07,00*4D
$PSMDCN,4*1F
$APVTG,247.1,T,231.9,M,0.1,N,0.1,K*41
$PSMDCN,1*1A
$GPDPT,2.6,-0.8*76
$PSMDCN,4*1F
$APRSA,0.4,A,,*3A
$PSMDCN,4*1F
$APDBT,8.5,f,2.6,M,1.4,F*0C
$PSMDCN,1*1A
$GPGGA,050727,3806.970,N,12137.455,W,1,10,1.5,3,M,,M,,*50
$PSMDCN,1*1A
$GPZDA,050727,15,11,2002,07,00*4C
$PSMDCN,4*1F
$APGLL,3806.9690,N,12137.4560,W,041601.00,A*18
$PSMDCN,4*1F
$APXTE,A,A,0.000,L,N*58
$PSMDCN,4*1F
$APVTG,247.1,T,231.9,M,0.1,N,0.1,K*41
$PSMDCN,1*1A
$GPAPB,A,A,0.001,R,N,V,V,128.0,M,1001,128.0,M,,M*3A
$PSMDCN,4*1F
$APRSA,0.4,A,,*3A
$PSMDCN,1*1A
$GPDPT,2.6,-0.8*76
$PSMDCN,4*1F
$APDBT,8.5,f,2.6,M,1.4,F*0C
$PSMDCN,1*1A
$GPGGA,050728,3806.970,N,12137.455,W,1,10,1.5,3,M,,M,,*5F
$PSMDCN,1*1A
$GPRMC,050728,A,3806.970,N,12137.455,W,0.1,247.1,151102,15.2,E*5C
$PSMDCN,4*1F
$APVTG,247.1,T,231.9,M,0.1,N,0.1,K*41
$PSMDCN,1*1A
$GPZDA,050728,15,11,2002,07,00*43
$PSMDCN,1*1A
$GPDPT,2.6,-0.8*76
$PSMDCN,4*1F
$APRSA,0.4,A,,*3A
$PSMDCN,1*1A
$GPGGA,050729,3806.970,N,12137.455,W,1,10,1.5,3,M,,M,,*5E
$PSMDCN,4*1F
$APDBT,8.5,f,2.6,M,1.4,F*0C
$PSMDCN,1*1A
$GPZDA,050729,15,11,2002,07,00*42
$PSMDCN,4*1F
$APGLL,3806.9690,N,12137.4560,W,041601.00,A*18
$PSMDCN,4*1F
$APVTG,247.1,T,231.9,M,0.1,N,0.1,K*41
$PSMDCN,1*1A
$GPDPT,2.6,-0.8*76
$PSMDCN,1*1A
$GPGGA,050730,3806.970,N,12137.455,W,1,10,1.5,3,M,,M,,*56
$PSMDCN,4*1F
$APRSA,0.4,A,,*3A
$PSMDCN,1*1A
$GPRMC,050730,A,3806.970,N,12137.455,W,0.1,247.1,151102,15.2,E*55
$PSMDCN,4*1F
$APDBT,8.5,f,2.6,M,1.4,F*0C
$PSMDCN,1*1A
$GPZDA,050730,15,11,2002,07,00*4A
$PSMDCN,4*1F
$APGLL,3806.9690,N,12137.4560,W,041601.00,A*18
$PSMDCN,1*1A
$GPDPT,2.6,-0.8*76
$PSMDCN,1*1A
$GPGGA,050731,3806.970,N,12137.455,W,1,10,1.5,3,M,,M,,*57
$PSMDCN,4*1F
$APRSA,0.4,A,,*3A
$PSMDCN,1*1A
$GPZDA,050731,15,11,2002,07,00*4B
$PSMDCN,4*1F
$APDBT,8.5,f,2.6,M,1.4,F*0C
$PSMDCN,1*1A
$PFEC,GPint,ast01*13
$PSMDCN,1*1A
$PFEC,idfnc,R,*08
$PSMDCN,1*1A
$PFEC,idfnc,A,1*2A
$PSMDCN,4*1F
$APGLL,3806.9690,N,12137.4560,W,041601.00,A*18
$PSMDCN,4*1F
$APVTG,247.1,T,231.9,M,0.1,N,0.1,K*41
$PSMDCN,1*1A
$GPAPB,A,A,0.001,R,N,V,V,128.0,M,1001,128.0,M,,M*3A
$PSMDCN,1*1A
$GPDPT,2.6,-0.8*76
$PSMDCN,4*1F
$APRSA,0.4,A,,*3A
$PSMDCN,1*1A
$GPGGA,050732,3806.970,N,12137.455,W,1,10,1.5,3,M,,M,,*54
$PSMDCN,4*1F
$APDBT,8.5,f,2.6,M,1.4,F*0C
$PSMDCN,1*1A
$GPRMC,050732,A,3806.970,N,12137.455,W,0.0,247.1,151102,15.2,E*56
$PSMDCN,1*1A
$GPZDA,050732,15,11,2002,07,00*48
$PSMDCN,1*1A
$GPDPT,2.6,-0.8*76
$PSMDCN,1*1A
$GPGGA,050733,3806.970,N,12137.455,W,1,10,1.5,3,M,,M,,*55
$PSMDCN,4*1F
$APRSA,0.4,A,,*3A
$PSMDCN,1*1A
$GPZDA,050733,15,11,2002,07,00*49
$PSMDCN,4*1F
$APDBT,8.5,f,2.6,M,1.4,F*0C
$PSMDCN,4*1F
$APGLL,3806.9690,N,12137.4560,W,041601.00,A*18
$PSMDCN,4*1F
$APVTG,247.1,T,231.9,M,0.1,N,0.1,K*41
$PSMDCN,1*1A
$GPDPT,2.6,-0.8*76
$PSMDCN,1*1A
$GPGGA,050734,3806.970,N,12137.455,W,1,10,1.5,3,M,,M,,*52
$PSMDCN,4*1F
$APRSA,0.4,A,,*3A
$PSMDCN,1*1A
$GPRMC,050734,A,3806.970,N,12137.455,W,0.1,247.1,151102,15.2,E*51
$PSMDCN,4*1F
$APDBT,8.5,f,2.6,M,1.4,F*0C
$PSMDCN,1*1A
$GPZDA,050734,15,11,2002,07,00*4E
$PSMDCN,4*1F
$APGLL,3806.9690,N,12137.4560,W,041601.00,A*18
$PSMDCN,4*1F
$APVTG,247.1,T,231.9,M,0.1,N,0.1,K*41
$PSMDCN,1*1A
$GPDPT,2.6,-0.8*76
$PSMDCN,1*1A
$GPGGA,050735,3806.970,N,12137.455,W,1,10,1.5,3,M,,M,,*53
$PSMDCN,1*1A
$GPZDA,050735,15,11,2002,07,00*4F
$PSMDCN,4*1F
$APRSA,0.4,A,,*3A
$PSMDCN,4*1F
$APDBT,8.5,f,2.6,M,1.4,F*0C
$PSMDCN,4*1F
$APXTE,A,A,0.000,L,N*58
$PSMDCN,4*1F
$APGLL,3806.9690,N,12137.4560,W,041601.00,A*18
$PSMDCN,4*1F
$APVTG,247.1,T,231.9,M,0.1,N,0.1,K*41
$PSMDCN,1*1A
$GPAPB,A,A,0.001,R,N,V,V,128.0,M,1001,128.0,M,,M*3A
$PSMDCN,1*1A
$GPDPT,2.6,-0.8*76
$PSMDCN,1*1A
$GPGGA,050736,3806.970,N,12137.455,W,1,10,1.5,3,M,,M,,*50
$PSMDCN,4*1F
$APRSA,0.4,A,,*3A
$PSMDCN,1*1A
$GPRMC,050736,A,3806.970,N,12137.455,W,0.0,247.1,151102,15.2,E*52
$PSMDCN,4*1F
$APDBT,8.5,f,2.6,M,1.4,F*0C
$PSMDCN,1*1A
$GPZDA,050736,15,11,2002,07,00*4C
$PSMDCN,4*1F
$APGLL,3806.9690,N,12137.4560,W,041601.00,A*18
$PSMDCN,4*1F
$APVTG,247.1,T,231.9,M,0.1,N,0.1,K*41
$PSMDCN,1*1A
$GPDPT,2.6,-0.8*76
$PSMDCN,1*1A
$GPGGA,050737,3806.970,N,12137.455,W,1,10,1.5,3,M,,M,,*51
$PSMDCN,1*1A
$GPZDA,050737,15,11,2002,07,00*4D
$PSMDCN,4*1F
$APRSA,0.4,A,,*3A
$PSMDCN,4*1F
$APDBT,8.5,f,2.6,M,1.4,F*0C
$PSMDCN,4*1F
$APGLL,3806.9690,N,12137.4560,W,041601.00,A*18
$PSMDCN,1*1A
$GPDPT,2.6,-0.8*76
$PSMDCN,4*1F
$APVTG,247.1,T,231.9,M,0.1,N,0.1,K*41
$PSMDCN,1*1A
$GPGGA,050738,3806.970,N,12137.455,W,1,10,1.5,3,M,,M,,*5E
$PSMDCN,1*1A
$GPRMC,050738,A,3806.970,N,12137.455,W,0.0,247.1,151102,15.2,E*5C
$PSMDCN,4*1F
$APRSA,0.4,A,,*3A
$PSMDCN,1*1A
$GPZDA,050738,15,11,2002,07,00*42
$PSMDCN,4*1F
$APGLL,3806.9690,N,12137.4560,W,041601.00,A*18
$PSMDCN,4*1F
$APVTG,247.1,T,231.9,M,0.1,N,0.1,K*41
$PSMDCN,1*1A
$GPDPT,2.6,-0.8*76
$PSMDCN,1*1A
$GPGGA,050739,3806.970,N,12137.455,W,1,10,1.5,3,M,,M,,*5F
$PSMDCN,1*1A
$GPZDA,050739,15,11,2002,07,00*43
$PSMDCN,4*1F
$APRSA,0.4,A,,*3A
$PSMDCN,4*1F
$APDBT,8.5,f,2.6,M,1.4,F*0C
$PSMDCN,4*1F
$APXTE,A,A,0.000,L,N*58
$PSMDCN,4*1F
$APGLL,3806.9690,N,12137.4560,W,041601.00,A*18
$PSMDCN,4*1F
$APVTG,247.1,T,231.9,M,0.1,N,0.1,K*41
$PSMDCN,1*1A
$GPAPB,A,A,0.001,R,N,V,V,128.0,M,1001,128.0,M,,M*3A
$PSMDCN,1*1A
$GPDPT,2.6,-0.8*76
$PSMDCN,1*1A
$GPGGA,050740,3806.970,N,12137.456,W,1,10,1.5,3,M,,M,,*52
$PSMDCN,1*1A
$GPRMC,050740,A,3806.970,N,12137.456,W,0.1,247.1,151102,15.2,E*51
$PSMDCN,4*1F
$APRSA,0.4,A,,*3A
$PSMDCN,1*1A
$GPZDA,050740,15,11,2002,07,00*4D
$PSMDCN,4*1F
$APDBT,8.5,f,2.6,M,1.4,F*0C
$PSMDCN,4*1F
$APGLL,3806.9690,N,12137.4560,W,041601.00,A*18
$PSMDCN,4*1F
$APVTG,247.1,T,231.9,M,0.1,N,0.1,K*41
$PSMDCN,1*1A
$GPDPT,2.6,-0.8*76
$PSMDCN,1*1A
$GPGGA,050741,3806.970,N,12137.456,W,1,10,1.5,3,M,,M,,*53
$PSMDCN,1*1A
$GPZDA,050741,15,11,2002,07,00*4C
$PSMDCN,1*1A
$PFEC,GPint,ast01*13
$PSMDCN,1*1A
$PFEC,idfnc,R,*08
$PSMDCN,4*1F
$APRSA,0.4,A,,*3A
$PSMDCN,1*1A
$PFEC,idfnc,A,1*2A
$PSMDCN,4*1F
$APGLL,3806.9690,N,12137.4560,W,041601.00,A*18
$PSMDCN,1*1A
$GPDPT,2.6,-0.8*76
$PSMDCN,1*1A
$GPGGA,050742,3806.970,N,12137.456,W,1,10,1.5,3,M,,M,,*50
$PSMDCN,4*1F
$APVTG,247.1,T,231.9,M,0.1,N,0.1,K*41
$PSMDCN,1*1A
$GPRMC,050742,A,3806.970,N,12137.456,W,0.0,247.1,151102,15.2,E*52
$PSMDCN,1*1A
$GPZDA,050742,15,11,2002,07,00*4F
$PSMDCN,4*1F
$APRSA,0.4,A,,*3A
$PSMDCN,4*1F
$APDBT,8.5,f,2.6,M,1.4,F*0C
$PSMDCN,4*1F
$APGLL,3806.9690,N,12137.4560,W,041601.00,A*18
$PSMDCN,1*1A
$GPDPT,2.6,-0.8*76
$PSMDCN,4*1F
$APVTG,247.1,T,231.9,M,0.1,N,0.1,K*41
$PSMDCN,1*1A
$GPGGA,050743,3806.970,N,12137.456,W,1,10,1.5,3,M,,M,,*51
$PSMDCN,1*1A
$GPZDA,050743,15,11,2002,07,00*4E
$PSMDCN,4*1F
$APXTE,A,A,0.000,L,N*58
$PSMDCN,4*1F
$APRSA,0.4,A,,*3A
$PSMDCN,4*1F
$APDBT,8.5,f,2.6,M,1.4,F*0C
$PSMDCN,4*1F
$APGLL,3806.9690,N,12137.4560,W,041601.00,A*18
$PSMDCN,1*1A
$GPAPB,A,A,0.001,R,N,V,V,128.0,M,1001,128.0,M,,M*3A
$PSMDCN,4*1F
$APVTG,247.1,T,231.9,M,0.1,N,0.1,K*41
$PSMDCN,1*1A
$GPDPT,2.6,-0.8*76
$PSMDCN,1*1A
$GPGGA,050744,3806.970,N,12137.456,W,1,10,1.5,3,M,,M,,*56
$PSMDCN,1*1A
$GPRMC,050744,A,3806.970,N,12137.456,W,0.0,247.1,151102,15.2,E*54
$PSMDCN,4*1F
$APRSA,0.4,A,,*3A
$PSMDCN,1*1A
$GPZDA,050744,15,11,2002,07,00*49
$PSMDCN,1*1A
$GPDPT,2.6,-0.8*76
$PSMDCN,4*1F
$APGLL,3806.9690,N,12137.4560,W,041601.00,A*18
$PSMDCN,1*1A
$GPGGA,050745,3806.970,N,12137.456,W,1,10,1.5,3,M,,M,,*57
$PSMDCN,4*1F
$APVTG,247.1,T,231.9,M,0.1,N,0.1,K*41
$PSMDCN,1*1A
$GPZDA,050745,15,11,2002,07,00*48
$PSMDCN,4*1F
$APRSA,0.4,A,,*3A
$PSMDCN,4*1F
$APDBT,8.5,f,2.6,M,1.4,F*0C
$PSMDCN,1*1A
$GPDPT,2.6,-0.8*76
$PSMDCN,1*1A
$GPGGA,050746,3806.970,N,12137.456,W,1,10,1.5,3,M,,M,,*54
$PSMDCN,4*1F
$APGLL,3806.9690,N,12137.4560,W,041601.00,A*18
$PSMDCN,1*1A
$GPRMC,050746,A,3806.970,N,12137.456,W,0.0,247.1,151102,15.2,E*56
$PSMDCN,4*1F
$APVTG,247.1,T,231.9,M,0.1,N,0.1,K*41
$PSMDCN,1*1A
$GPZDA,050746,15,11,2002,07,00*4B
$PSMDCN,4*1F
$APRSA,0.4,A,,*3A
$PSMDCN,1*1A
$GPDPT,2.6,-0.8*76
$PSMDCN,4*1F
$APGLL,3806.9690,N,12137.4560,W,041601.00,A*18
$PSMDCN,1*1A
$GPGGA,050747,3806.970,N,12137.456,W,1,10,1.5,3,M,,M,,*55
$PSMDCN,4*1F
$APVTG,247.1,T,231.9,M,0.1,N,0.1,K*41
$PSMDCN,1*1A
$GPZDA,050747,15,11,2002,07,00*4A
$PSMDCN,4*1F
$APXTE,A,A,0.000,L,N*58
$PSMDCN,4*1F
$APRSA,0.4,A,,*3A
$PSMDCN,4*1F
$APDBT,8.5,f,2.6,M,1.4,F*0C
$PSMDCN,1*1A
$GPAPB,A,A,0.001,R,N,V,V,128.0,M,1001,128.0,M,,M*3A
$PSMDCN,4*1F
$APGLL,3806.9690,N,12137.4560,W,041601.00,A*18
$PSMDCN,1*1A
$GPDPT,2.6,-0.8*76
$PSMDCN,4*1F
$APVTG,247.1,T,231.9,M,0.1,N,0.1,K*41
$PSMDCN,1*1A
$GPGGA,050748,3806.970,N,12137.456,W,1,10,1.5,3,M,,M,,*5A
$PSMDCN,1*1A
$GPRMC,050748,A,3806.970,N,12137.456,W,0.0,247.1,151102,15.2,E*58
$PSMDCN,4*1F
$APRSA,0.4,A,,*3A
$PSMDCN,1*1A
$GPZDA,050748,15,11,2002,07,00*45
$PSMDCN,1*1A
$GPDPT,2.6,-0.8*76
$PSMDCN,1*1A
$GPGGA,050749,3806.970,N,12137.456,W,1,10,1.5,3,M,,M,,*5B
$PSMDCN,4*1F
$APGLL,3806.9690,N,12137.4560,W,041601.00,A*18
$PSMDCN,1*1A
$GPZDA,050749,15,11,2002,07,00*44
$PSMDCN,4*1F
$APVTG,247.1,T,231.9,M,0.1,N,0.1,K*41
$PSMDCN,4*1F
$APRSA,0.4,A,,*3A
$PSMDCN,4*1F
$APDBT,8.5,f,2.6,M,1.4,F*0C
$PSMDCN,1*1A
$GPDPT,2.6,-0.8*76
$PSMDCN,1*1A
$GPGGA,050750,3806.970,N,12137.456,W,1,10,1.5,3,M,,M,,*53
$PSMDCN,4*1F
$APGLL,3806.9690,N,12137.4560,W,041601.00,A*18
$PSMDCN,1*1A
$GPRMC,050750,A,3806.970,N,12137.456,W,0.0,247.1,151102,15.2,E*51
$PSMDCN,4*1F
$APVTG,247.1,T,231.9,M,0.1,N,0.1,K*41
$PSMDCN,1*1A
$GPZDA,050750,15,11,2002,07,00*4C
$PSMDCN,4*1F
$APRSA,0.4,A,,*3A
$PSMDCN,4*1F
$APDBT,8.5,f,2.6,M,1.4,F*0C
$PSMDCN,1*1A
$GPDPT,2.6,-0.8*76
$PSMDCN,1*1A
$GPGGA,050751,3806.970,N,12137.456,W,1,10,1.5,3,M,,M,,*52
$PSMDCN,4*1F
$APGLL,3806.9690,N,12137.4560,W,041601.00,A*18
$PSMDCN,1*1A
$GPZDA,050751,15,11,2002,07,00*4D
$PSMDCN,4*1F
$APVTG,247.1,T,231.9,M,0.1,N,0.1,K*41
$PSMDCN,1*1A
$PFEC,GPint,ast01*13
$PSMDCN,4*1F
$APXTE,A,A,0.000,L,N*58
$PSMDCN,1*1A
$PFEC,idfnc,R,*08
$PSMDCN,1*1A
$PFEC,idfnc,A,1*2A
$PSMDCN,4*1F
$APRSA,0.4,A,,*3A
$PSMDCN,4*1F
$APDBT,8.5,f,2.6,M,1.4,F*0C
$PSMDCN,1*1A
$GPAPB,A,A,0.001,R,N,V,V,128.0,M,1001,128.0,M,,M*3A
$PSMDCN,1*1A
$GPDPT,2.6,-0.8*76
$PSMDCN,4*1F
$APGLL,3806.9690,N,12137.4560,W,041601.00,A*18
$PSMDCN,1*1A
$GPGGA,050752,3806.970,N,12137.456,W,1,10,1.5,3,M,,M,,*51
$PSMDCN,4*1F
$APVTG,247.1,T,231.9,M,0.1,N,0.1,K*41
$PSMDCN,1*1A
$GPRMC,050752,A,3806.970,N,12137.456,W,0.0,247.1,151102,15.2,E*53
$PSMDCN,1*1A
$GPZDA,050752,15,11,2002,07,00*4E
$PSMDCN,4*1F
$APRSA,0.4,A,,*3A
$PSMDCN,1*1A
$GPDPT,2.6,-0.8*76
$PSMDCN,1*1A
$GPGGA,050753,3806.970,N,12137.456,W,1,10,1.5,2,M,,M,,*51
$PSMDCN,4*1F
$APGLL,3806.9690,N,12137.4560,W,041601.00,A*18
$PSMDCN,1*1A
$GPZDA,050753,15,11,2002,07,00*4F
$PSMDCN,4*1F
$APVTG,247.1,T,231.9,M,0.1,N,0.1,K*41
$PSMDCN,4*1F
$APRSA,0.4,A,,*3A
$PSMDCN,4*1F
$APDBT,8.5,f,2.6,M,1.4,F*0C
$PSMDCN,1*1A
$GPDPT,2.6,-0.8*76
$PSMDCN,1*1A
$GPGGA,050754,3806.970,N,12137.456,W,1,10,1.5,2,M,,M,,*56
$PSMDCN,1*1A
$GPRMC,050754,A,3806.970,N,12137.456,W,0.1,247.1,151102,15.2,E*54
$PSMDCN,4*1F
$APGLL,3806.9690,N,12137.4560,W,041601.00,A*18
$PSMDCN,1*1A
$GPZDA,050754,15,11,2002,07,00*48
$PSMDCN,4*1F
$APVTG,247.1,T,231.9,M,0.1,N,0.1,K*41
$PSMDCN,4*1F
$APRSA,0.4,A,,*3A
$PSMDCN,4*1F
$APDBT,8.5,f,2.6,M,1.4,F*0C
$PSMDCN,1*1A
$GPDPT,2.6,-0.8*76
$PSMDCN,1*1A
$GPGGA,050755,3806.970,N,12137.456,W,1,10,1.5,2,M,,M,,*57
$PSMDCN,1*1A
$GPZDA,050755,15,11,2002,07,00*49
$PSMDCN,4*1F
$APGLL,3806.9690,N,12137.4560,W,041601.00,A*18
$PSMDCN,4*1F
$APVTG,247.1,T,231.9,M,0.1,N,0.1,K*41
$PSMDCN,4*1F
$APXTE,A,A,0.000,L,N*58
$PSMDCN,4*1F
$APRSA,0.4,A,,*3A
$PSMDCN,4*1F
$APDBT,8.5,f,2.6,M,1.4,F*0C
$PSMDCN,1*1A
$GPAPB,A,A,0.001,R,N,V,V,128.0,M,1001,128.0,M,,M*3A
$PSMDCN,1*1A
$GPDPT,2.6,-0.8*76
$PSMDCN,1*1A
$GPGGA,050756,3806.970,N,12137.456,W,1,10,1.5,2,M,,M,,*54
$PSMDCN,4*1F
$APGLL,3806.9690,N,12137.4560,W,041601.00,A*18
$PSMDCN,1*1A
$GPRMC,050756,A,3806.970,N,12137.456,W,0.1,247.1,151102,15.2,E*56
$PSMDCN,4*1F
$APVTG,247.1,T,231.9,M,0.1,N,0.1,K*41
$PSMDCN,1*1A
$GPZDA,050756,15,11,2002,07,00*4A
$PSMDCN,4*1F
$APRSA,0.4,A,,*3A
$PSMDCN,1*1A
$GPDPT,2.6,-0.8*76
$PSMDCN,4*1F
$APDBT,8.5,f,2.6,M,1.4,F*0C
$PSMDCN,1*1A
$GPGGA,050757,3806.970,N,12137.456,W,1,10,1.5,2,M,,M,,*55
$PSMDCN,1*1A
$GPZDA,050757,15,11,2002,07,00*4B
$PSMDCN,4*1F
$APGLL,3806.9690,N,12137.4560,W,041601.00,A*18
$PSMDCN,4*1F
$APVTG,247.1,T,231.9,M,0.1,N,0.1,K*41
$PSMDCN,1*1A
$GPDPT,2.6,-0.8*76
$PSMDCN,4*1F
$APRSA,0.4,A,,*3A
$PSMDCN,4*1F
$APDBT,8.5,f,2.6,M,1.4,F*0C
$PSMDCN,1*1A
$GPGGA,050758,3806.970,N,12137.456,W,1,10,1.5,2,M,,M,,*5A
$PSMDCN,1*1A
$GPRMC,050758,A,3806.970,N,12137.456,W,0.1,247.1,151102,15.2,E*58
$PSMDCN,4*1F
$APGLL,3806.9690,N,12137.4560,W,041601.00,A*18
$PSMDCN,1*1A
$GPZDA,050758,15,11,2002,07,00*44
$PSMDCN,4*1F
$APRSA,0.4,A,,*3A
$PSMDCN,1*1A
$GPDPT,2.6,-0.8*76
$PSMDCN,4*1F
$APDBT,8.5,f,2.6,M,1.4,F*0C
$PSMDCN,1*1A
$GPGGA,050759,3806.970,N,12137.456,W,1,10,1.5,2,M,,M,,*5B
$PSMDCN,1*1A
$GPZDA,050759,15,11,2002,07,00*45
$PSMDCN,4*1F
$APGLL,3806.9690,N,12137.4560,W,041601.00,A*18
$PSMDCN,4*1F
$APVTG,247.1,T,231.9,M,0.1,N,0.1,K*41
$PSMDCN,4*1F
$APXTE,A,A,0.000,L,N*58
$PSMDCN,4*1F
$APRSA,0.4,A,,*3A
$PSMDCN,1*1A
$GPAPB,A,A,0.001,R,N,V,V,128.0,M,1001,128.0,M,,M*3A
$PSMDCN,4*1F
$APDBT,8.5,f,2.6,M,1.4,F*0C
$PSMDCN,1*1A
$GPDPT,2.6,-0.8*76
$PSMDCN,1*1A
$GPGGA,050800,3806.970,N,12137.456,W,1,10,1.5,2,M,,M,,*58
$PSMDCN,1*1A
$GPRMC,050800,A,3806.970,N,12137.456,W,0.0,247.1,151102,15.2,E*5B
$PSMDCN,4*1F
$APVTG,247.1,T,231.9,M,0.1,N,0.1,K*41
$PSMDCN,1*1A
$GPDPT,2.6,-0.8*76
$PSMDCN,4*1F
$APRSA,0.4,A,,*3A
$PSMDCN,1*1A
$GPGGA,050801,3806.970,N,12137.456,W,1,10,1.5,2,M,,M,,*59
$PSMDCN,4*1F
$APDBT,8.5,f,2.6,M,1.4,F*0C
$PSMDCN,1*1A
$GPZDA,050801,15,11,2002,07,00*47
$PSMDCN,1*1A
$PFEC,GPint,ast01*13
$PSMDCN,1*1A
$PFEC,idfnc,R,*08
$PSMDCN,1*1A
$PFEC,idfnc,A,1*2A
$PSMDCN,4*1F
$APVTG,247.1,T,231.9,M,0.1,N,0.1,K*41
$PSMDCN,1*1A
$GPDPT,2.6,-0.8*76
$PSMDCN,4*1F
$APRSA,0.4,A,,*3A
$PSMDCN,1*1A
$GPGGA,050802,3806.970,N,12137.456,W,1,10,1.5,2,M,,M,,*5A
$PSMDCN,4*1F
$APDBT,8.5,f,2.6,M,1.4,F*0C
$PSMDCN,1*1A
$GPRMC,050802,A,3806.970,N,12137.456,W,0.0,247.1,151102,15.2,E*59
$PSMDCN,1*1A
$GPZDA,050802,15,11,2002,07,00*44
$PSMDCN,4*1F
$APGLL,3806.9690,N,12137.4560,W,041601.00,A*18
$PSMDCN,1*1A
$GPDPT,2.6,-0.8*76
$PSMDCN,4*1F
$APRSA,0.4,A,,*3A
$PSMDCN,1*1A
$GPGGA,050803,3806.970,N,12137.456,W,1,10,1.5,2,M,,M,,*5B
$PSMDCN,4*1F
$APDBT,8.5,f,2.6,M,1.4,F*0C
$PSMDCN,1*1A
$GPZDA,050803,15,11,2002,07,00*45
$PSMDCN,4*1F
$APGLL,3806.9690,N,12137.4560,W,041601.00,A*18
$PSMDCN,4*1F
$APVTG,247.1,T,231.9,M,0.1,N,0.1,K*41
$PSMDCN,4*1F
$APXTE,A,A,0.000,L,N*58
$PSMDCN,1*1A
$GPAPB,A,A,0.001,R,N,V,V,128.0,M,1001,128.0,M,,M*3A
$PSMDCN,4*1F
$APRSA,0.4,A,,*3A
$PSMDCN,1*1A
$GPDPT,2.6,-0.8*76
$PSMDCN,4*1F
$APDBT,8.5,f,2.6,M,1.4,F*0C
$PSMDCN,1*1A
$GPGGA,050804,3806.970,N,12137.456,W,1,10,1.5,2,M,,M,,*5C
$PSMDCN,1*1A
$GPRMC,050804,A,3806.970,N,12137.456,W,0.0,247.1,151102,15.2,E*5F
$PSMDCN,4*1F
$APGLL,3806.9690,N,12137.4560,W,041601.00,A*18
$PSMDCN,1*1A
$GPZDA,050804,15,11,2002,07,00*42
$PSMDCN,1*1A
$GPDPT,2.6,-0.8*76
$PSMDCN,1*1A
$GPGGA,050805,3806.970,N,12137.456,W,1,10,1.5,2,M,,M,,*5D
$PSMDCN,4*1F
$APRSA,0.4,A,,*3A
$PSMDCN,1*1A
$GPZDA,050805,15,11,2002,07,00*43
$PSMDCN,4*1F
