3806.9690,N,12137.4560,W,041601.00,A*18
$PSMDCN,1*1A
$GPAPB,$PSMDCN,4*1F
$APGLL,3806.9690,N,12137.4560,W,041601.00,A*18
$PSMDCN,4*1F
$APVTG,247.1,T,231.9,M,0.1,N,0.1,K*41
$PSMDCN,4*1F
$APXTE,A,A,0.000,L,N*58
$PSMDCN,1*1A
$GPAPB,A,A,0.000,L,N,V,V,128.0,M,1001,128.0,M,,M*25
$PSMDCN,1*1A
$GPDPT,2.6,-0.8*76
$PSMDCN,1*1A
$GPGGA,045516,3806.966,N,12137.453,W,1,8,3.4,19,M,,M,,*54
$PSMDCN,1*1A
$GPRMC,045516,A,3806.966,N,12137.453,W,0.0,247.1,151102,15.2,E*57
$PSMDCN,4*1F
$APRSA,-0.2,A,,*11
$PSMDCN,1*1A
$GPZDA,045516,15,11,2002,07,00*48
$PSMDCN,4*1F
$APDBT,8.5,f,2.6,M,1.4,F*0C
$PSMDCN,4*1F
$APGLL,3806.9690,N,12137.4560,W,041601.00,A*18
$PSMDCN,4*1F
$APVTG,247.1,T,231.9,M,0.1,N,0.1,K*41
$PSMDCN,1*1A
$GPDPT,2.6,-0.8*76
$PSMDCN,1*1A
$GPZDA,045517,15,11,2002,07,00*49
$PSMDCN,4*1F
$APRSA,-0.2,A,,*11
$PSMDCN,4*1F
$APDBT,8.5,f,2.6,M,1.4,F*0C
$PSMDCN,4*1F
$APGLL,3806.9690,N,12137.4560,W,041601.00,A*18
$PSMDCN,4*1F
$APVTG,247.1,T,231.9,M,0.1,N,0.1,K*41
$PSMDCN,1*1A
$GPDPT,2.6,-0.8*76
$PSMDCN,1*1A
$GPGGA,045518,3806.966,N,12137.453,W,1,8,3.4,19,M,,M,,*5A
$PSMDCN,1*1A
$GPRMC,045518,A,3806.966,N,12137.453,W,0.0,247.1,151102,15.2,E*59
$PSMDCN,1*1A
$GPZDA,045518,15,11,2002,07,00*46
$PSMDCN,4*1F
$APRSA,-0.2,A,,*11
$PSMDCN,4*1F
$APDBT,8.5,f,2.6,M,1.4,F*0C
$PSMDCN,4*1F
$APGLL,3806.9690,N,12137.4560,W,041601.00,A*18
$PSMDCN,4*1F
$APVTG,247.1,T,231.9,M,0.1,N,0.1,K*41
$PSMDCN,1*1A
$GPDPT,2.6,-0.8*76
$PSMDCN,1*1A
$GPGGA,045519,3806.966,N,12137.453,W,1,8,3.4,19,M,,M,,*5B
$PSMDCN,1*1A
$GPZDA,045519,15,11,2002,07,00*47
$PSMDCN,4*1F
$APRSA,-0.2,A,,*11
$PSMDCN,4*1F
$APDBT,8.5,f,2.6,M,1.4,F*0C
$PSMDCN,4*1F
$APGLL,3806.9690,N,12137.4560,W,041601.00,A*18
$PSMDCN,4*1F
$APVTG,247.1,T,231.9,M,0.1,N,0.1,K*41
$PSMDCN,1*1A
$GPAPB,A,A,0.000,L,N,V,V,128.0,M,1001,128.0,M,,M*25
$PSMDCN,4*1F
$APXTE,A,A,0.000,L,N*58
$PSMDCN,1*1A
$GPDPT,2.6,-0.8*76
$PSMDCN,1*1A
$GPGGA,045520,3806.966,N,12137.453,W,1,8,3.4,19,M,,M,,*51
$PSMDCN,1*1A
$GPZDA,045520,15,11,2002,07,00*4D
$PSMDCN,4*1F
$APDBT,8.5,f,2.6,M,1.4,F*0C
$PSMDCN,4*1F
$APGLL,3806.9690,N,12137.4560,W,041601.00,A*18
$PSMDCN,1*1A
$GPDPT,2.6,-0.8*76
$PSMDCN,4*1F
$APVTG,247.1,T,231.9,M,0.1,N,0.1,K*41
$PSMDCN,1*1A
$GPGGA,045521,3806.966,N,12137.453,W,1,8,3.4,19,M,,M,,*50
$PSMDCN,1*1A
$GPZDA,045521,15,11,2002,07,00*4C
$PSMDCN,4*1F
$APRSA,-0.2,A,,*11
$PSMDCN,4*1F
$APDBT,8.5,f,2.6,M,1.4,F*0C
$PSMDCN,4*1F
$APGLL,3806.9690,N,12137.4560,W,041601.00,A*18
$PSMDCN,1*1A
$GPDPT,2.6,-0.8*76
$PSMDCN,4*1F
$APVTG,247.1,T,231.9,M,0.1,N,0.1,K*41
$PSMDCN,1*1A
$GPGGA,045522,3806.966,N,12137.453,W,1,8,3.4,19,M,,M,,*53
$PSMDCN,1*1A
$GPRMC,045522,A,3806.966,N,12137.453,W,0.0,247.1,151102,15.2,E*50
$PSMDCN,1*1A
$GPZDA,045522,15,11,2002,07,00*4F
$PSMDCN,4*1F
$APRSA,-0.2,A,,*11
$PSMDCN,1*1A
$PFEC,GPint,ast01*13
$PSMDCN,1*1A
$PFEC,idfnc,R,*08
$PSMDCN,1*1A
$PFEC,idfnc,A,1*2A
$PSMDCN,1*1A
$GPDPT,2.6,-0.8*76
$PSMDCN,4*1F
$APGLL,3806.9690,N,12137.4560,W,041601.00,A*18
$PSMDCN,1*1A
$GPGGA,045523,3806.966,N,12137.453,W,1,8,3.4,18,M,,M,,*53
$PSMDCN,4*1F
$APVTG,247.1,T,231.9,M,0.1,N,0.1,K*41
$PSMDCN,1*1A
$GPZDA,045523,15,11,2002,07,00*4E
$PSMDCN,4*1F
$APRSA,-0.2,A,,*11
$PSMDCN,4*1F
$APDBT,8.5,f,2.6,M,1.4,F*0C
$PSMDCN,4*1F
$APGLL,3806.9690,N,12137.4560,W,041601.00,A*18
$PSMDCN,1*1A
$GPAPB,A,A,0.000,L,N,V,V,128.0,M,1001,128.0,M,,M*25
$PSMDCN,4*1F
$APXTE,A,A,0.000,L,N*58
$PSMDCN,1*1A
$GPDPT,2.6,-0.8*76
$PSMDCN,4*1F
$APVTG,247.1,T,231.9,M,0.1,N,0.1,K*41
$PSMDCN,1*1A
$GPGGA,045524,3806.966,N,12137.453,W,1,8,3.4,18,M,,M,,*54
$PSMDCN,1*1A
$GPRMC,045524,A,3806.966,N,12137.453,W,0.0,247.1,151102,15.2,E*56
$PSMDCN,4*1F
$APDBT,8.5,f,2.6,M,1.4,F*0C
$PSMDCN,1*1A
$GPDPT,2.6,-0.8*76
$PSMDCN,4*1F
$APGLL,3806.9690,N,12137.4560,W,041601.00,A*18
$PSMDCN,1*1A
$GPGGA,045525,3806.967,N,12137.453,W,1,8,3.4,18,M,,M,,*54
$PSMDCN,4*1F
$APVTG,247.1,T,231.9,M,0.1,N,0.1,K*41
$PSMDCN,1*1A
$GPZDA,045525,15,11,2002,07,00*48
$PSMDCN,4*1F
$APRSA,-0.2,A,,*11
$PSMDCN,4*1F
$APDBT,8.5,f,2.6,M,1.4,F*0C
$PSMDCN,1*1A
$GPDPT,2.6,-0.8*76
$PSMDCN,4*1F
$APGLL,3806.9690,N,12137.4560,W,041601.00,A*18
$PSMDCN,1*1A
$GPGGA,045526,3806.967,N,12137.453,W,1,8,3.4,18,M,,M,,*57
$PSMDCN,4*1F
$APVTG,247.1,T,231.9,M,0.1,N,0.1,K*41
$PSMDCN,1*1A
$GPRMC,045526,A,3806.967,N,12137.453,W,0.0,247.1,151102,15.2,E*55
$PSMDCN,1*1A
$GPZDA,045526,15,11,2002,07,00*4B
$PSMDCN,4*1F
$APRSA,-0.2,A,,*11
$PSMDCN,4*1F
$APDBT,8.5,f,2.6,M,1.4,F*0C
$PSMDCN,1*1A
$GPDPT,2.6,-0.8*76
$PSMDCN,4*1F
$APGLL,3806.9690,N,12137.4560,W,041601.00,A*18
$PSMDCN,1*1A
$GPGGA,045527,3806.967,N,12137.453,W,1,8,3.4,18,M,,M,,*56
$PSMDCN,4*1F
$APVTG,247.1,T,231.9,M,0.1,N,0.1,K*41
$PSMDCN,1*1A
$GPZDA,045527,15,11,2002,07,00*4A
$PSMDCN,4*1F
$APRSA,-0.2,A,,*11
$PSMDCN,4*1F
$APDBT,8.5,f,2.6,M,1.4,F*0C
$PSMDCN,1*1A
$GPAPB,A,A,0.000,L,N,V,V,128.0,M,1001,128.0,M,,M*25
$PSMDCN,4*1F
$APXTE,A,A,0.000,L,N*58
$PSMDCN,1*1A
$GPDPT,2.6,-0.8*76
$PSMDCN,4*1F
$APGLL,3806.9690,N,12137.4560,W,041601.00,A*18
$PSMDCN,1*1A
$GPGGA,045528,3806.967,N,12137.453,W,1,8,3.4,18,M,,M,,*59
$PSMDCN,4*1F
$APVTG,247.1,T,231.9,M,0.1,N,0.1,K*41
$PSMDCN,1*1A
$GPRMC,045528,A,3806.967,N,12137.453,W,0.0,247.1,151102,15.2,E*5B
$PSMDCN,4*1F
$APRSA,-0.2,A,,*11
$PSMDCN,1*1A
$GPZDA,045528,15,11,2002,07,00*45
$PSMDCN,1*1A
$GPDPT,2.6,-0.8*76
$PSMDCN,1*1A
$GPGGA,045529,3806.967,N,12137.453,W,1,8,3.4,18,M,,M,,*58
$PSMDCN,4*1F
$APGLL,3806.9690,N,12137.4560,W,041601.00,A*18
$PSMDCN,1*1A
$GPZDA,045529,15,11,2002,07,00*44
$PSMDCN,4*1F
$APVTG,247.1,T,231.9,M,0.1,N,0.1,K*41
$PSMDCN,4*1F
$APRSA,-0.2,A,,*11
$PSMDCN,4*1F
$APDBT,8.5,f,2.6,M,1.4,F*0C
$PSMDCN,1*1A
$GPDPT,2.6,-0.8*76
$PSMDCN,1*1A
$GPGGA,045530,3806.967,N,12137.454,W,1,8,3.4,18,M,,M,,*57
$PSMDCN,4*1F
$APGLL,3806.9690,N,12137.4560,W,041601.00,A*18
$PSMDCN,1*1A
$GPRMC,045530,A,3806.967,N,12137.454,W,0.0,247.1,151102,15.2,E*55
$PSMDCN,4*1F
$APVTG,247.1,T,231.9,M,0.1,N,0.1,K*41
$PSMDCN,1*1A
$GPZDA,045530,15,11,2002,07,00*4C
$PSMDCN,4*1F
$APRSA,-0.2,A,,*11
$PSMDCN,4*1F
$APDBT,8.5,f,2.6,M,1.4,F*0C
$PSMDCN,1*1A
$GPDPT,2.6,-0.8*76
$PSMDCN,1*1A
$GPGGA,045531,3806.967,N,12137.454,W,1,8,3.4,18,M,,M,,*56
$PSMDCN,4*1F
$APGLL,3806.9690,N,12137.4560,W,041601.00,A*18
$PSMDCN,1*1A
$GPZDA,045531,15,11,2002,07,00*4D
$PSMDCN,4*1F
$APVTG,247.1,T,231.9,M,0.1,N,0.1,K*41
$PSMDCN,4*1F
$APRSA,-0.2,A,,*11
$PSMDCN,4*1F
$APDBT,8.5,f,2.6,M,1.4,F*0C
$PSMDCN,4*1F
$APXTE,A,A,0.000,L,N*58
$PSMDCN,1*1A
$GPAPB,A,A,0.000,L,N,V,V,128.0,M,1001,128.0,M,,M*25
$PSMDCN,1*1A
$GPDPT,2.6,-0.8*76
$PSMDCN,1*1A
$GPGGA,045532,3806.967,N,12137.454,W,1,8,3.4,18,M,,M,,*55
$PSMDCN,4*1F
$APGLL,3806.9690,N,12137.4560,W,041601.00,A*18
$
